{"hasZ":true,"type":"FeatureCollection","features":[{"type":"Feature","id":1,"geometry":{"type":"Point","coordinates":[102.79475200000007,16.675071800000069,0]},"properties":{"OBJECTID":1,"F_id":"relation/1687287","location":"outdoor","name":"สถานีไฟฟ้าน้ำพอง ๑","name_en":"Nam Phong Power Station 1","power":"substation","source":"Bing; GPS; sign","substation":"transmission","type":"multipolygon","voltage":"115000","F_geometry":"center","Voltage_kV":115}},{"type":"Feature","id":2,"geometry":{"type":"Point","coordinates":[100.76939270000008,14.579007900000022,0]},"properties":{"OBJECTID":2,"F_id":"relation/13111898","location":"outdoor","name":"สถานีไฟฟ้าแรงสูงท่าลาน 1","name_en":"Nam Phong Power Station 1","power":"substation","source":"Bing; GPS; sign","substation":"transmission","type":"multipolygon","voltage":"115000","F_geometry":"center","Voltage_kV":115}},{"type":"Feature","id":3,"geometry":{"type":"Point","coordinates":[100.29994160000007,5.4011522000000696,0]},"properties":{"OBJECTID":3,"F_id":"relation/16276671","location":"outdoor","name":"สถานีไฟฟ้าแรงสูงท่าลาน 1","name_en":"Nam Phong Power Station 1","power":"substation","source":"Bing; GPS; sign","substation":"minor_distribution","type":"multipolygon","voltage":"115000","F_geometry":"center","Voltage_kV":115}},{"type":"Feature","id":4,"geometry":{"type":"Point","coordinates":[100.32949450000007,5.4048938000000248,0]},"properties":{"OBJECTID":4,"F_id":"relation/17435784","location":"outdoor","name":"สถานีไฟฟ้าแรงสูงท่าลาน 1","name_en":"Nam Phong Power Station 1","power":"substation","source":"Bing; GPS; sign","substation":"minor_distribution","type":"multipolygon","voltage":"115000","F_geometry":"center","Voltage_kV":115}},{"type":"Feature","id":5,"geometry":{"type":"Point","coordinates":[100.43812670000005,5.3219380000000456,0]},"properties":{"OBJECTID":5,"F_id":"relation/18057979","location":"outdoor","name":"สถานีไฟฟ้าแรงสูงท่าลาน 1","name_en":"Nam Phong Power Station 1","power":"substation","source":"Bing; GPS; sign","substation":"minor_distribution","type":"multipolygon","voltage":"115000","F_geometry":"center","Voltage_kV":115}},{"type":"Feature","id":6,"geometry":{"type":"Point","coordinates":[100.43854710000005,5.3219264000000521,0]},"properties":{"OBJECTID":6,"F_id":"relation/18057980","location":"outdoor","name":"สถานีไฟฟ้าแรงสูงท่าลาน 1","name_en":"Nam Phong Power Station 1","power":"substation","source":"Bing; GPS; sign","substation":"minor_distribution","type":"multipolygon","voltage":"115000","F_geometry":"center","Voltage_kV":115}},{"type":"Feature","id":7,"geometry":{"type":"Point","coordinates":[100.47513280000004,5.1147755000000643,0]},"properties":{"OBJECTID":7,"F_id":"relation/18937457","location":"outdoor","name":"สถานีไฟฟ้าแรงสูงท่าลาน 1","name_en":"Nam Phong Power Station 1","power":"substation","source":"Bing; GPS; sign","substation":"minor_distribution","type":"multipolygon","voltage":"115000","F_geometry":"center","Voltage_kV":115}},{"type":"Feature","id":8,"geometry":{"type":"Point","coordinates":[99.747728700000039,18.296570300000042,0]},"properties":{"OBJECTID":8,"F_id":"relation/19917952","location":"outdoor","name":"สถานีไฟฟ้าแรงสูงแม่เมาะ 3","name_en":"Nam Phong Power Station 1","power":"substation","source":"Bing; GPS; sign","substation":"transmission","type":"multipolygon","voltage":"500000;230000;115000","F_geometry":"center","Voltage_kV":500}},{"type":"Feature","id":9,"geometry":{"type":"Point","coordinates":[100.55638250000004,13.619993900000054,0]},"properties":{"OBJECTID":9,"F_id":"way/26120059","location":"outdoor","name":"สถานีไฟฟ้าแรงสูงพระนครใต้","name_en":"Nam Phong Power Station 1","power":"substation","source":"Bing; GPS; sign","substation":"transmission","type":"multipolygon","voltage":"230000;115000;22000","F_geometry":"center","Voltage_kV":230}},{"type":"Feature","id":10,"geometry":{"type":"Point","coordinates":[100.58308640000007,13.778147800000056,0]},"properties":{"OBJECTID":10,"F_id":"way/26237620","location":"outdoor","name":"สถานีไฟฟ้าแรงสูงรัชดาภิเษก 2","name_en":"Ratchadaphisek 2 High Voltage Substation","power":"substation","source":"Bing; GPS; sign","substation":"distribution","type":"multipolygon","voltage":"230000;115000","F_geometry":"center","Voltage_kV":230}},{"type":"Feature","id":11,"geometry":{"type":"Point","coordinates":[100.55578150000008,13.908947400000045,0]},"properties":{"OBJECTID":11,"F_id":"way/26238367","location":"outdoor","name":"สถานีไฟฟ้าแรงสูงแจ้งวัฒนะ","name_en":"Ratchadaphisek 2 High Voltage Substation","power":"substation","source":"Bing; GPS; sign","substation":"transmission","type":"multipolygon","voltage":"500000;230000","F_geometry":"center","Voltage_kV":500}},{"type":"Feature","id":12,"geometry":{"type":"Point","coordinates":[100.56794190000005,13.975500100000033,0]},"properties":{"OBJECTID":12,"F_id":"way/27828836","location":"outdoor","name":"สถานีไฟฟ้าแรงสูงรังสิต","name_en":"Ratchadaphisek 2 High Voltage Substation","power":"substation","source":"Bing; GPS; sign","substation":"transmission","type":"multipolygon","voltage":"230000","F_geometry":"center","Voltage_kV":230}},{"type":"Feature","id":13,"geometry":{"type":"Point","coordinates":[100.60296290000008,13.741540400000076,0]},"properties":{"OBJECTID":13,"F_id":"way/64680159","location":"outdoor","name":"สถานีไฟฟ้าแรงสูงบางกะปิ","name_en":"Bangkapi Substation","power":"substation","source":"Bing; GPS; sign","substation":"transmission","type":"multipolygon","voltage":"230000","F_geometry":"center","Voltage_kV":230}},{"type":"Feature","id":14,"geometry":{"type":"Point","coordinates":[100.68458510000005,13.725057800000059,0]},"properties":{"OBJECTID":14,"F_id":"way/64680187","location":"outdoor","name":"สถานีไฟฟ้าแรงสูง\u200Bอ่อนนุช","name_en":"Bangkapi Substation","power":"substation","source":"Yahoo","substation":"transmission","type":"multipolygon","voltage":"500000;230000","F_geometry":"center","Voltage_kV":500}},{"type":"Feature","id":15,"geometry":{"type":"Point","coordinates":[100.66214550000007,13.629118700000049,0]},"properties":{"OBJECTID":15,"F_id":"way/64680223","location":"outdoor","name":"สถานีไฟฟ้าแรงสูงเทพารักษ์","name_en":"Bangkapi Substation","power":"substation","source":"Yahoo","substation":"transmission","type":"multipolygon","voltage":"230000","F_geometry":"center","Voltage_kV":230}},{"type":"Feature","id":16,"geometry":{"type":"Point","coordinates":[98.960952800000086,18.797545700000057,0]},"properties":{"OBJECTID":16,"F_id":"way/97987797","location":"outdoor","name":"สถานีไฟฟ้ามหาวิทยาลัยเชียงใหม่","name_en":"Bangkapi Substation","power":"substation","source":"Yahoo","substation":"transmission","type":"multipolygon","voltage":"230000","F_geometry":"center","Voltage_kV":230}},{"type":"Feature","id":17,"geometry":{"type":"Point","coordinates":[97.359552500000063,19.555555000000027,0]},"properties":{"OBJECTID":17,"F_id":"way/99231445","location":"outdoor","name":"Baluchaung II Power Plant","name_en":"Bangkapi Substation","power":"substation","source":"Yahoo","substation":"generation","type":"multipolygon","voltage":"230000;132000;33000;11000","F_geometry":"center","Voltage_kV":230}},{"type":"Feature","id":18,"geometry":{"type":"Point","coordinates":[100.60184330000004,14.080812600000058,0]},"properties":{"OBJECTID":18,"F_id":"way/108936850","location":"outdoor","name":"สถานีไฟฟ้าย่อย","name_en":"Bangkapi Substation","power":"substation","source":"Yahoo","substation":"generation","type":"multipolygon","voltage":"230000;132000;33000;11000","F_geometry":"center","Voltage_kV":230}},{"type":"Feature","id":19,"geometry":{"type":"Point","coordinates":[102.53919180000008,18.081991600000038,0]},"properties":{"OBJECTID":19,"F_id":"way/113965080","location":"outdoor","name":"Naxaythong","name_en":"Bangkapi Substation","power":"substation","source":"Yahoo","substation":"transmission","type":"multipolygon","voltage":"230000;115000","F_geometry":"center","Voltage_kV":230}},{"type":"Feature","id":20,"geometry":{"type":"Point","coordinates":[99.086816900000088,18.735222500000077,0]},"properties":{"OBJECTID":20,"F_id":"way/118790679","location":"outdoor","name":"สถานีไฟฟ้าสันกำแพง","name_en":"Bangkapi Substation","power":"substation","source":"Yahoo","substation":"distribution","type":"multipolygon","voltage":"230000;115000","F_geometry":"center","Voltage_kV":230}},{"type":"Feature","id":21,"geometry":{"type":"Point","coordinates":[99.008417300000076,18.768207200000063,0]},"properties":{"OBJECTID":21,"F_id":"way/121651693","location":"outdoor","name":"สถานีไฟฟ้าแรงสูงเชียงใหม่ 1","name_en":"Bangkapi Substation","power":"substation","source":"Yahoo","substation":"transmission","type":"multipolygon","voltage":"115000","F_geometry":"center","Voltage_kV":115}},{"type":"Feature","id":22,"geometry":{"type":"Point","coordinates":[100.22784360000009,13.731423500000062,0]},"properties":{"OBJECTID":22,"F_id":"way/133318523","location":"outdoor","name":"สถานีไฟฟ้าแรงสูงสามพราน 2","name_en":"Bangkapi Substation","power":"substation","source":"Yahoo","substation":"transmission","type":"multipolygon","voltage":"115000","F_geometry":"center","Voltage_kV":115}},{"type":"Feature","id":23,"geometry":{"type":"Point","coordinates":[102.46337350000005,16.48681380000005,0]},"properties":{"OBJECTID":23,"F_id":"way/137210450","location":"outdoor","name":"สถานีไฟฟ้าหนองเรือ","name_en":"Power Station Nong Ruea","power":"substation","source":"Bing;sign","substation":"distribution","type":"multipolygon","voltage":"115000","F_geometry":"center","Voltage_kV":115}},{"type":"Feature","id":24,"geometry":{"type":"Point","coordinates":[100.39135650000009,13.711132700000064,0]},"properties":{"OBJECTID":24,"F_id":"way/147606553","location":"outdoor","name":"สถานีไฟฟ้าแรงสูงบางกอกน้อย","name_en":"Power Station Nong Ruea","power":"substation","source":"Bing","substation":"transmission","type":"multipolygon","voltage":"500000;230000","F_geometry":"center","Voltage_kV":500}},{"type":"Feature","id":25,"geometry":{"type":"Point","coordinates":[103.17978400000004,19.438856100000066,0]},"properties":{"OBJECTID":25,"F_id":"way/151040600","location":"outdoor","name":"สถานีไฟฟ้าแรงสูงบางกอกน้อย","name_en":"Power Station Nong Ruea","power":"substation","source":"Bing","substation":"transmission","type":"multipolygon","voltage":"115000","F_geometry":"center","Voltage_kV":115}},{"type":"Feature","id":26,"geometry":{"type":"Point","coordinates":[101.19289730000008,12.987135500000022,0]},"properties":{"OBJECTID":26,"F_id":"way/155847885","location":"outdoor","name":"สถานีไฟฟ้าแรงสูงปลวกแดง","name_en":"Power Station Nong Ruea","power":"substation","source":"Bing","substation":"transmission","type":"multipolygon","voltage":"500000;230000","F_geometry":"center","Voltage_kV":500}},{"type":"Feature","id":27,"geometry":{"type":"Point","coordinates":[101.02680130000005,13.503992800000049,0]},"properties":{"OBJECTID":27,"F_id":"way/155851424","location":"outdoor","name":"สถานีไฟฟ้าแรงสูงบางปะกง","name_en":"Power Station Nong Ruea","power":"substation","source":"Bing","substation":"transmission","type":"multipolygon","voltage":"230000;115000;22000","F_geometry":"center","Voltage_kV":230}},{"type":"Feature","id":28,"geometry":{"type":"Point","coordinates":[101.03300340000004,13.626207100000045,0]},"properties":{"OBJECTID":28,"F_id":"way/156592382","location":"outdoor","name":"สถานีไฟฟ้าแรงสูงฉะเชิงเทรา","name_en":"Power Station Nong Ruea","power":"substation","source":"Bing","substation":"transmission","type":"multipolygon","voltage":"115000","F_geometry":"center","Voltage_kV":115}},{"type":"Feature","id":29,"geometry":{"type":"Point","coordinates":[105.77425340000008,10.284175100000027,0]},"properties":{"OBJECTID":29,"F_id":"way/169917851","location":"outdoor","name":"สถานีไฟฟ้าแรงสูงฉะเชิงเทรา","name_en":"Power Station Nong Ruea","power":"substation","source":"Bing","substation":"transmission","type":"multipolygon","voltage":"115000","F_geometry":"center","Voltage_kV":115}},{"type":"Feature","id":30,"geometry":{"type":"Point","coordinates":[100.54228960000006,13.913559700000064,0]},"properties":{"OBJECTID":30,"F_id":"way/175492252","location":"outdoor","name":"สถานีไฟฟ้าแรงสูงฉะเชิงเทรา","name_en":"Power Station Nong Ruea","power":"substation","source":"Bing","substation":"transmission","type":"multipolygon","voltage":"115000","F_geometry":"center","Voltage_kV":115}},{"type":"Feature","id":31,"geometry":{"type":"Point","coordinates":[102.73669220000005,18.331402400000059,0]},"properties":{"OBJECTID":31,"F_id":"way/183426328","location":"outdoor","name":"สถานีไฟฟ้าแรงสูงฉะเชิงเทรา","name_en":"Power Station Nong Ruea","power":"substation","source":"Bing","substation":"transmission","type":"multipolygon","voltage":"115000","F_geometry":"center","Voltage_kV":115}},{"type":"Feature","id":32,"geometry":{"type":"Point","coordinates":[98.92603790000004,18.732386500000075,0]},"properties":{"OBJECTID":32,"F_id":"way/185208209","location":"outdoor","name":"สถานีไฟฟ้าพืชสวนโลก","name_en":"Power Station Nong Ruea","power":"substation","source":"Bing","substation":"transmission","type":"multipolygon","voltage":"115000","F_geometry":"center","Voltage_kV":115}},{"type":"Feature","id":33,"geometry":{"type":"Point","coordinates":[99.729691200000048,19.752783700000066,0]},"properties":{"OBJECTID":33,"F_id":"way/191899703","location":"outdoor","name":"สถานีไฟฟ้าแม่ลาว","name_en":"Power Station Nong Ruea","power":"substation","source":"Bing","substation":"transmission","type":"multipolygon","voltage":"115000","F_geometry":"center","Voltage_kV":115}},{"type":"Feature","id":34,"geometry":{"type":"Point","coordinates":[100.18883500000004,13.749730800000066,0]},"properties":{"OBJECTID":34,"F_id":"way/195977249","location":"outdoor","name":"สถานีไฟฟ้าแรงสูงนครชัยศรี","name_en":"High Voltage Substation Nakhon Chaisi","power":"substation","source":"Bing","substation":"transmission","type":"multipolygon","voltage":"230000;115000","F_geometry":"center","Voltage_kV":230}},{"type":"Feature","id":35,"geometry":{"type":"Point","coordinates":[99.051463000000069,18.652422000000058,0]},"properties":{"OBJECTID":35,"F_id":"way/196803560","location":"outdoor","name":"สถานีไฟฟ้าแรงสูงลำพูน 2","name_en":"Lamphun 2 High Voltage Substation","power":"substation","source":"Bing","substation":"transmission","type":"multipolygon","voltage":"230000;115000","F_geometry":"center","Voltage_kV":230}},{"type":"Feature","id":36,"geometry":{"type":"Point","coordinates":[98.342379900000083,7.8604891000000521,0]},"properties":{"OBJECTID":36,"F_id":"way/197776084","location":"outdoor","name":"สถานีไฟฟ้าแรงสูงภูเก็ต 2","name_en":"Lamphun 2 High Voltage Substation","power":"substation","source":"Bing","substation":"transmission","type":"multipolygon","voltage":"115000","F_geometry":"center","Voltage_kV":115}},{"type":"Feature","id":37,"geometry":{"type":"Point","coordinates":[100.34190930000005,13.974300200000073,0]},"properties":{"OBJECTID":37,"F_id":"way/199773777","location":"outdoor","name":"สถานีไฟฟ้าแรงสูงไทรน้อย","name_en":"Lamphun 2 High Voltage Substation","power":"substation","source":"Bing","substation":"transmission","type":"multipolygon","voltage":"500000;230000","F_geometry":"center","Voltage_kV":500}},{"type":"Feature","id":38,"geometry":{"type":"Point","coordinates":[99.86884230000004,13.853031500000043,0]},"properties":{"OBJECTID":38,"F_id":"way/199773788","location":"outdoor","name":"สถานีไฟฟ้าแรงสูงบ้านโป่ง 2","name_en":"Lamphun 2 High Voltage Substation","power":"substation","source":"Bing","substation":"transmission","type":"multipolygon","voltage":"230000;115000","F_geometry":"center","Voltage_kV":230}},{"type":"Feature","id":39,"geometry":{"type":"Point","coordinates":[100.51110840000007,13.812071800000069,0]},"properties":{"OBJECTID":39,"F_id":"way/199806286","location":"outdoor","name":"สถานีไฟฟ้าแรงสูงพระนครเหนือ","name_en":"North Bangkok Substation","power":"substation","source":"Bing","substation":"transmission","type":"multipolygon","voltage":"230000","F_geometry":"center","Voltage_kV":230}},{"type":"Feature","id":40,"geometry":{"type":"Point","coordinates":[103.05554670000004,14.662125200000048,0]},"properties":{"OBJECTID":40,"F_id":"way/201508383","location":"outdoor","name":"สถานีไฟฟ้าแรงสูงประโคนชัย","name_en":"North Bangkok Substation","power":"substation","source":"Bing","substation":"transmission","type":"multipolygon","voltage":"115000","F_geometry":"center","Voltage_kV":115}},{"type":"Feature","id":41,"geometry":{"type":"Point","coordinates":[100.51276980000006,13.956560500000023,0]},"properties":{"OBJECTID":41,"F_id":"way/201815114","location":"outdoor","name":"สถานีไฟฟ้าปทุมธานี 2","name_en":"North Bangkok Substation","power":"substation","source":"Bing","substation":"transmission","type":"multipolygon","voltage":"115000","F_geometry":"center","Voltage_kV":115}},{"type":"Feature","id":42,"geometry":{"type":"Point","coordinates":[100.61633230000007,6.2717963000000623,0]},"properties":{"OBJECTID":42,"F_id":"way/206135962","location":"outdoor","name":"สถานีไฟฟ้าปทุมธานี 2","name_en":"North Bangkok Substation","power":"substation","source":"Bing","substation":"transmission","type":"multipolygon","voltage":"115000","F_geometry":"center","Voltage_kV":115}},{"type":"Feature","id":43,"geometry":{"type":"Point","coordinates":[100.66003560000007,6.1397636000000375,0]},"properties":{"OBJECTID":43,"F_id":"way/206425171","location":"outdoor","name":"สถานีไฟฟ้าปทุมธานี 2","name_en":"North Bangkok Substation","power":"substation","source":"Bing","substation":"transmission","type":"multipolygon","voltage":"115000","F_geometry":"center","Voltage_kV":115}},{"type":"Feature","id":44,"geometry":{"type":"Point","coordinates":[100.61499990000004,6.0116003000000546,0]},"properties":{"OBJECTID":44,"F_id":"way/206551662","location":"outdoor","name":"Pencawang Pembahagian Utama Sungai Tiang","name_en":"North Bangkok Substation","power":"substation","source":"Bing","substation":"transmission","type":"multipolygon","voltage":"33000;11000","F_geometry":"center","Voltage_kV":33}},{"type":"Feature","id":45,"geometry":{"type":"Point","coordinates":[100.61707940000008,13.86280940000006,0]},"properties":{"OBJECTID":45,"F_id":"way/211746552","location":"outdoor","name":"Pencawang Pembahagian Utama Sungai Tiang","name_en":"North Bangkok Substation","power":"substation","source":"Bing","substation":"distribution","type":"multipolygon","voltage":"33000;11000","F_geometry":"center","Voltage_kV":33}},{"type":"Feature","id":46,"geometry":{"type":"Point","coordinates":[100.91664510000004,5.6945381000000452,0]},"properties":{"OBJECTID":46,"F_id":"way/214792338","location":"outdoor","name":"Pencawang Pembahagian Utama Sungai Tiang","name_en":"North Bangkok Substation","power":"substation","source":"Bing","substation":"distribution","type":"multipolygon","voltage":"132000","F_geometry":"center","Voltage_kV":132}},{"type":"Feature","id":47,"geometry":{"type":"Point","coordinates":[104.59731660000006,10.216410300000064,0]},"properties":{"OBJECTID":47,"F_id":"way/223156504","location":"outdoor","name":"Pencawang Pembahagian Utama Sungai Tiang","name_en":"North Bangkok Substation","power":"substation","source":"Bing","substation":"industrial","type":"multipolygon","voltage":"110000","F_geometry":"center","Voltage_kV":110}},{"type":"Feature","id":48,"geometry":{"type":"Point","coordinates":[100.80613810000006,13.812843200000032,0]},"properties":{"OBJECTID":48,"F_id":"way/223601302","location":"outdoor","name":"สถานีไฟฟ้าแรงสูงหนองจอก","name_en":"North Bangkok Substation","power":"substation","source":"Bing","substation":"transmission","type":"multipolygon","voltage":"500000;230000","F_geometry":"center","Voltage_kV":500}},{"type":"Feature","id":49,"geometry":{"type":"Point","coordinates":[104.92906390000007,11.528634400000044,0]},"properties":{"OBJECTID":49,"F_id":"way/223939136","location":"outdoor","name":"สถานีไฟฟ้าแรงสูงหนองจอก","name_en":"North Bangkok Substation","power":"substation","source":"Bing","substation":"transmission","type":"multipolygon","voltage":"115000;22000","F_geometry":"center","Voltage_kV":115}},{"type":"Feature","id":50,"geometry":{"type":"Point","coordinates":[105.40857120000004,12.02172390000004,0]},"properties":{"OBJECTID":50,"F_id":"way/226738479","location":"outdoor","name":"Kampong Cham","name_en":"North Bangkok Substation","power":"substation","source":"Bing","substation":"transmission","type":"multipolygon","voltage":"230000","F_geometry":"center","Voltage_kV":230}},{"type":"Feature","id":51,"geometry":{"type":"Point","coordinates":[97.628204600000061,16.462246500000049,0]},"properties":{"OBJECTID":51,"F_id":"way/229371984","location":"outdoor","name":"Kampong Cham","name_en":"North Bangkok Substation","power":"substation","source":"Bing","substation":"distribution","type":"multipolygon","voltage":"230000","F_geometry":"center","Voltage_kV":230}},{"type":"Feature","id":52,"geometry":{"type":"Point","coordinates":[98.393188500000065,7.9164664000000471,0]},"properties":{"OBJECTID":52,"F_id":"way/231296943","location":"outdoor","name":"สถานีไฟฟ้าแรงสูงภูเก็ต 1","name_en":"North Bangkok Substation","power":"substation","source":"Bing","substation":"distribution","type":"multipolygon","voltage":"115000","F_geometry":"center","Voltage_kV":115}},{"type":"Feature","id":53,"geometry":{"type":"Point","coordinates":[100.60548280000006,14.067089200000055,0]},"properties":{"OBJECTID":53,"F_id":"way/233727053","location":"outdoor","name":"การไฟฟ้าส่วนภูมิภาค สถานีไฟฟ้ามหาวิทยาลัยธรรมศาสตร์","name_en":"Provincial Electricity Authority Thammasat University Substation","power":"substation","source":"Bing","substation":"distribution","type":"multipolygon","voltage":"115000","F_geometry":"center","Voltage_kV":115}},{"type":"Feature","id":54,"geometry":{"type":"Point","coordinates":[99.064112500000078,10.015674800000056,0]},"properties":{"OBJECTID":54,"F_id":"way/234182441","location":"outdoor","name":"สถานีไฟฟ้าแรงสูงหลังสวน","name_en":"Provincial Electricity Authority Thammasat University Substation","power":"substation","source":"Bing","substation":"transmission","type":"multipolygon","voltage":"230000;115000","F_geometry":"center","Voltage_kV":230}},{"type":"Feature","id":55,"geometry":{"type":"Point","coordinates":[101.99237270000003,6.0048990000000231,0]},"properties":{"OBJECTID":55,"F_id":"way/234323336","location":"outdoor","name":"Pencawang Masuk Utama Rantau Panjang","name_en":"Provincial Electricity Authority Thammasat University Substation","power":"substation","source":"Bing","substation":"transmission","type":"multipolygon","voltage":"132000","F_geometry":"center","Voltage_kV":132}},{"type":"Feature","id":56,"geometry":{"type":"Point","coordinates":[101.91487890000008,6.0240322000000219,0]},"properties":{"OBJECTID":56,"F_id":"way/234442754","location":"outdoor","name":"สถานีไฟฟ้าแรงสูงสุไหงโก-ลก","name_en":"Provincial Electricity Authority Thammasat University Substation","power":"substation","source":"Bing","substation":"transmission","type":"multipolygon","voltage":"115000","F_geometry":"center","Voltage_kV":115}},{"type":"Feature","id":57,"geometry":{"type":"Point","coordinates":[99.711730100000068,18.294059100000027,0]},"properties":{"OBJECTID":57,"F_id":"way/238462207","location":"outdoor","name":"สถานีไฟฟ้าแรงสูงแม่เมาะ 2","name_en":"Provincial Electricity Authority Thammasat University Substation","power":"substation","source":"Bing","substation":"transmission","type":"multipolygon","voltage":"115000","F_geometry":"center","Voltage_kV":115}},{"type":"Feature","id":58,"geometry":{"type":"Point","coordinates":[101.26707930000003,6.4762386000000447,0]},"properties":{"OBJECTID":58,"F_id":"way/238578822","location":"outdoor","name":"สถานีไฟฟ้าแรงสูงยะลา 2","name_en":"Provincial Electricity Authority Thammasat University Substation","power":"substation","source":"Bing","substation":"transmission","type":"multipolygon","voltage":"230000;115000","F_geometry":"center","Voltage_kV":230}},{"type":"Feature","id":59,"geometry":{"type":"Point","coordinates":[101.26781890000007,6.4989483000000519,0]},"properties":{"OBJECTID":59,"F_id":"way/238578830","location":"outdoor","name":"สถานีไฟฟ้าแรงสูงยะลา 1","name_en":"Provincial Electricity Authority Thammasat University Substation","power":"substation","source":"Bing","substation":"transmission","type":"multipolygon","voltage":"115000","F_geometry":"center","Voltage_kV":115}},{"type":"Feature","id":60,"geometry":{"type":"Point","coordinates":[98.807712500000036,8.9704918000000475,0]},"properties":{"OBJECTID":60,"F_id":"way/239587274","location":"outdoor","name":"โรงไฟฟ้าเขื่อนรัชชประภา","name_en":"Provincial Electricity Authority Thammasat University Substation","power":"substation","source":"Bing","substation":"transmission","type":"multipolygon","voltage":"230000;115000","F_geometry":"center","Voltage_kV":230}},{"type":"Feature","id":61,"geometry":{"type":"Point","coordinates":[101.16121140000007,12.646372400000075,0]},"properties":{"OBJECTID":61,"F_id":"way/242402501","location":"outdoor","name":"โรงไฟฟ้าเขื่อนรัชชประภา","name_en":"Provincial Electricity Authority Thammasat University Substation","power":"substation","source":"Bing","substation":"transmission","type":"multipolygon","voltage":"500000","F_geometry":"center","Voltage_kV":500}},{"type":"Feature","id":62,"geometry":{"type":"Point","coordinates":[98.393218000000047,7.9162023000000659,0]},"properties":{"OBJECTID":62,"F_id":"way/242776916","location":"outdoor","name":"โรงไฟฟ้าเขื่อนรัชชประภา","name_en":"Provincial Electricity Authority Thammasat University Substation","power":"substation","source":"Bing","substation":"transmission","type":"multipolygon","voltage":"500000","F_geometry":"center","Voltage_kV":500}},{"type":"Feature","id":63,"geometry":{"type":"Point","coordinates":[98.998132200000043,18.811971500000027,0]},"properties":{"OBJECTID":63,"F_id":"way/243115930","location":"outdoor","name":"สถานีไฟฟ้าแรงสูงเชียงใหม่ 2","name_en":"Provincial Electricity Authority Thammasat University Substation","power":"substation","source":"Bing","substation":"transmission","type":"multipolygon","voltage":"230000;115000","F_geometry":"center","Voltage_kV":230}},{"type":"Feature","id":64,"geometry":{"type":"Point","coordinates":[100.49081280000007,6.9676006000000257,0]},"properties":{"OBJECTID":64,"F_id":"way/244062167","location":"outdoor","name":"สถานีไฟฟ้าแรงสูงหาดใหญ่ 2","name_en":"Provincial Electricity Authority Thammasat University Substation","power":"substation","source":"Bing","substation":"transmission","type":"multipolygon","voltage":"230000;115000","F_geometry":"center","Voltage_kV":230}},{"type":"Feature","id":65,"geometry":{"type":"Point","coordinates":[100.40171750000007,6.6327063000000521,0]},"properties":{"OBJECTID":65,"F_id":"way/244715536","location":"outdoor","name":"สถานีไฟฟ้าแรงสูงสะเดา","name_en":"High Voltage Substation Sadao","power":"substation","source":"Bing","substation":"transmission","type":"multipolygon","voltage":"132000;115000;33000","F_geometry":"center","Voltage_kV":132}},{"type":"Feature","id":66,"geometry":{"type":"Point","coordinates":[103.50998730000003,16.124563500000022,0]},"properties":{"OBJECTID":66,"F_id":"way/245311456","location":"outdoor","name":"สถานีไฟฟ้าแรงสูงร้อยเอ็ด 2","name_en":"High Voltage Substation Sadao","power":"substation","source":"Bing","substation":"transmission","type":"multipolygon","voltage":"500000;230000","F_geometry":"center","Voltage_kV":500}},{"type":"Feature","id":67,"geometry":{"type":"Point","coordinates":[103.31408490000007,16.181600700000047,0]},"properties":{"OBJECTID":67,"F_id":"way/245378518","location":"outdoor","name":"สถานีไฟฟ้าแรงสูงมหาสารคาม","name_en":"High Voltage Substation Sadao","power":"substation","source":"Bing","substation":"transmission","type":"multipolygon","voltage":"115000","F_geometry":"center","Voltage_kV":115}},{"type":"Feature","id":68,"geometry":{"type":"Point","coordinates":[103.31496580000004,16.18240220000007,0]},"properties":{"OBJECTID":68,"F_id":"way/245378519","location":"outdoor","name":"สถานีไฟฟ้าแรงสูงมหาสารคาม","name_en":"High Voltage Substation Sadao","power":"substation","source":"Bing","substation":"distribution","type":"multipolygon","voltage":"115000","F_geometry":"center","Voltage_kV":115}},{"type":"Feature","id":69,"geometry":{"type":"Point","coordinates":[105.14907150000005,17.682258200000035,0]},"properties":{"OBJECTID":69,"F_id":"way/246888800","location":"outdoor","name":"Nam Theun 2","name_en":"High Voltage Substation Sadao","power":"substation","source":"Bing","substation":"distribution","type":"multipolygon","voltage":"500000","F_geometry":"center","Voltage_kV":500}},{"type":"Feature","id":70,"geometry":{"type":"Point","coordinates":[100.63925540000008,5.6041463000000249,0]},"properties":{"OBJECTID":70,"F_id":"way/247067888","location":"outdoor","name":"Nam Theun 2","name_en":"High Voltage Substation Sadao","power":"substation","source":"Bing","substation":"distribution","type":"multipolygon","voltage":"500000","F_geometry":"center","Voltage_kV":500}},{"type":"Feature","id":71,"geometry":{"type":"Point","coordinates":[100.67760310000006,5.176043800000059,0]},"properties":{"OBJECTID":71,"F_id":"way/247067911","location":"outdoor","name":"Nam Theun 2","name_en":"High Voltage Substation Sadao","power":"substation","source":"Bing","substation":"distribution","type":"multipolygon","voltage":"500000","F_geometry":"center","Voltage_kV":500}},{"type":"Feature","id":72,"geometry":{"type":"Point","coordinates":[105.16226100000006,17.46345610000003,0]},"properties":{"OBJECTID":72,"F_id":"way/247079860","location":"outdoor","name":"Mahaxay","name_en":"High Voltage Substation Sadao","power":"substation","source":"Bing","substation":"transmission","type":"multipolygon","voltage":"115000","F_geometry":"center","Voltage_kV":115}},{"type":"Feature","id":73,"geometry":{"type":"Point","coordinates":[104.81565130000007,17.366388100000052,0]},"properties":{"OBJECTID":73,"F_id":"way/247443948","location":"outdoor","name":"Mahaxay","name_en":"Thakhek","power":"substation","source":"Bing","substation":"transmission","type":"multipolygon","voltage":"115000","F_geometry":"center","Voltage_kV":115}},{"type":"Feature","id":74,"geometry":{"type":"Point","coordinates":[100.74879710000005,5.8365517000000295,0]},"properties":{"OBJECTID":74,"F_id":"way/247522543","location":"outdoor","name":"Mahaxay","name_en":"Thakhek","power":"substation","source":"Bing","substation":"transmission","type":"multipolygon","voltage":"115000","F_geometry":"center","Voltage_kV":115}},{"type":"Feature","id":75,"geometry":{"type":"Point","coordinates":[104.75455730000004,16.628277700000069,0]},"properties":{"OBJECTID":75,"F_id":"way/247613910","location":"outdoor","name":"Mahaxay","name_en":"Pakbo substation","power":"substation","source":"Bing","substation":"transmission","type":"multipolygon","voltage":"115000;22000","F_geometry":"center","Voltage_kV":115}},{"type":"Feature","id":76,"geometry":{"type":"Point","coordinates":[104.73714810000007,17.496166900000048,0]},"properties":{"OBJECTID":76,"F_id":"way/247650360","location":"outdoor","name":"Mahaxay","name_en":"Pakbo substation","power":"substation","source":"Bing","substation":"transmission","type":"multipolygon","voltage":"230000","F_geometry":"center","Voltage_kV":230}},{"type":"Feature","id":77,"geometry":{"type":"Point","coordinates":[104.72008540000007,17.494227500000022,0]},"properties":{"OBJECTID":77,"F_id":"way/247704837","location":"outdoor","name":"สถานีไฟฟ้าแรงสูงนครพนม 2","name_en":"Pakbo substation","power":"substation","source":"Bing","substation":"transmission","type":"multipolygon","voltage":"230000;115000","F_geometry":"center","Voltage_kV":230}},{"type":"Feature","id":78,"geometry":{"type":"Point","coordinates":[103.64804330000004,16.078095500000074,0]},"properties":{"OBJECTID":78,"F_id":"way/247878196","location":"outdoor","name":"สถานีไฟฟ้าแรงสูงร้อยเอ็ด 1","name_en":"Pakbo substation","power":"substation","source":"Bing","substation":"transmission","type":"multipolygon","voltage":"230000;115000;22000","F_geometry":"center","Voltage_kV":230}},{"type":"Feature","id":79,"geometry":{"type":"Point","coordinates":[99.869694100000061,19.216588300000069,0]},"properties":{"OBJECTID":79,"F_id":"way/248015323","location":"outdoor","name":"สถานีไฟฟ้าแรงสูงพะเยา","name_en":"Pakbo substation","power":"substation","source":"Bing","substation":"transmission","type":"multipolygon","voltage":"230000;115000","F_geometry":"center","Voltage_kV":230}},{"type":"Feature","id":80,"geometry":{"type":"Point","coordinates":[99.51786960000004,11.402905600000054,0]},"properties":{"OBJECTID":80,"F_id":"way/248612897","location":"outdoor","name":"Egat","name_en":"Pakbo substation","power":"substation","source":"Bing","substation":"transmission","type":"multipolygon","voltage":"230000;115000","F_geometry":"center","Voltage_kV":230}},{"type":"Feature","id":81,"geometry":{"type":"Point","coordinates":[99.512832600000081,11.422531100000072,0]},"properties":{"OBJECTID":81,"F_id":"way/250742034","location":"outdoor","name":"สถานีไฟฟ้าแรงสูงบางสะพาน 2","name_en":"Bang Saphan 2 High Voltage Substation","power":"substation","source":"Bing","substation":"transmission","type":"multipolygon","voltage":"500000;230000;115000","F_geometry":"center","Voltage_kV":500}},{"type":"Feature","id":82,"geometry":{"type":"Point","coordinates":[99.517312300000071,11.40257710000003,0]},"properties":{"OBJECTID":82,"F_id":"way/250880218","location":"outdoor","name":"สถานีไฟฟ้าแรงสูงบางสะพาน 2","name_en":"Bang Saphan 2 High Voltage Substation","power":"substation","source":"Bing","substation":"transmission","type":"multipolygon","voltage":"500000;230000;115000","F_geometry":"center","Voltage_kV":500}},{"type":"Feature","id":83,"geometry":{"type":"Point","coordinates":[98.690276500000039,18.438646600000027,0]},"properties":{"OBJECTID":83,"F_id":"way/251439207","location":"outdoor","name":"สถานีไฟฟ้าแรงสูงจอมทอง","name_en":"Chom Tong High Voltage Substation","power":"substation","source":"Bing","substation":"transmission","type":"multipolygon","voltage":"230000;115000;22000","F_geometry":"center","Voltage_kV":230}},{"type":"Feature","id":84,"geometry":{"type":"Point","coordinates":[98.689289700000074,18.438460300000031,0]},"properties":{"OBJECTID":84,"F_id":"way/251439210","location":"outdoor","name":"สถานีไฟฟ้าแรงสูงจอมทอง","name_en":"Chom Tong High Voltage Substation","power":"substation","source":"http://www.mapillary.com/map/im/_WST7FIDNhMtIjF6dAqHTw","substation":"transmission","type":"multipolygon","voltage":"230000;115000;22000","F_geometry":"center","Voltage_kV":230}},{"type":"Feature","id":85,"geometry":{"type":"Point","coordinates":[105.85409690000006,20.877496700000052,0]},"properties":{"OBJECTID":85,"F_id":"way/251790836","location":"outdoor","name":"Trạm 500 kV Thường Tín","name_en":"Chom Tong High Voltage Substation","power":"substation","source":"http://www.mapillary.com/map/im/_WST7FIDNhMtIjF6dAqHTw","substation":"transmission","type":"multipolygon","voltage":"500000;220000;110000","F_geometry":"center","Voltage_kV":500}},{"type":"Feature","id":86,"geometry":{"type":"Point","coordinates":[102.50664830000005,18.511648500000035,0]},"properties":{"OBJECTID":86,"F_id":"way/251886212","location":"outdoor","name":"Trạm 500 kV Thường Tín","name_en":"Chom Tong High Voltage Substation","power":"substation","source":"http://www.mapillary.com/map/im/_WST7FIDNhMtIjF6dAqHTw","substation":"transmission","type":"multipolygon","voltage":"115000","F_geometry":"center","Voltage_kV":115}},{"type":"Feature","id":87,"geometry":{"type":"Point","coordinates":[100.17331840000008,16.923342700000035,0]},"properties":{"OBJECTID":87,"F_id":"way/252630101","location":"outdoor","name":"Trạm 500 kV Thường Tín","name_en":"Chom Tong High Voltage Substation","power":"substation","source":"http://www.mapillary.com/map/im/_WST7FIDNhMtIjF6dAqHTw","substation":"transmission","type":"multipolygon","voltage":"115000","F_geometry":"center","Voltage_kV":115}},{"type":"Feature","id":88,"geometry":{"type":"Point","coordinates":[100.34448490000005,14.61243630000007,0]},"properties":{"OBJECTID":88,"F_id":"way/252757805","location":"outdoor","name":"สถานีไฟฟ้าแรงสูงอ่างทอง 2","name_en":"Chom Tong High Voltage Substation","power":"substation","source":"http://www.mapillary.com/map/im/_WST7FIDNhMtIjF6dAqHTw","substation":"transmission","type":"multipolygon","voltage":"230000;115000","F_geometry":"center","Voltage_kV":230}},{"type":"Feature","id":89,"geometry":{"type":"Point","coordinates":[100.10071630000004,15.705316500000038,0]},"properties":{"OBJECTID":89,"F_id":"way/254460966","location":"outdoor","name":"สถานีไฟฟ้าแรงสูงนครสวรรค์","name_en":"Nakhon Sawan substation","power":"substation","source":"http://www.mapillary.com/map/im/_WST7FIDNhMtIjF6dAqHTw","substation":"transmission","type":"multipolygon","voltage":"230000:115000","F_geometry":"center","Voltage_kV":0}},{"type":"Feature","id":90,"geometry":{"type":"Point","coordinates":[100.67426520000004,13.998045200000035,0]},"properties":{"OBJECTID":90,"F_id":"way/255439483","location":"outdoor","name":"สถานีไฟฟ้าธัญบุรี","name_en":"Nakhon Sawan substation","power":"substation","source":"http://www.mapillary.com/map/im/_WST7FIDNhMtIjF6dAqHTw","substation":"distribution","type":"multipolygon","voltage":"230000:115000","F_geometry":"center","Voltage_kV":0}},{"type":"Feature","id":91,"geometry":{"type":"Point","coordinates":[99.452397500000075,18.248521900000071,0]},"properties":{"OBJECTID":91,"F_id":"way/255673493","location":"outdoor","name":"สถานีไฟฟ้าแรงสูงลำปาง 1","name_en":"Nakhon Sawan substation","power":"substation","source":"http://www.mapillary.com/map/im/_WST7FIDNhMtIjF6dAqHTw","substation":"transmission","type":"multipolygon","voltage":"115000","F_geometry":"center","Voltage_kV":115}},{"type":"Feature","id":92,"geometry":{"type":"Point","coordinates":[100.73808190000005,18.841768600000023,0]},"properties":{"OBJECTID":92,"F_id":"way/259375954","location":"outdoor","name":"สถานีไฟฟ้าแรงสูงลำปาง 1","name_en":"Nakhon Sawan substation","power":"substation","source":"http://www.mapillary.com/map/im/_WST7FIDNhMtIjF6dAqHTw","substation":"transmission","type":"multipolygon","voltage":"115000","F_geometry":"center","Voltage_kV":115}},{"type":"Feature","id":93,"geometry":{"type":"Point","coordinates":[100.75318570000007,18.742687100000069,0]},"properties":{"OBJECTID":93,"F_id":"way/259533943","location":"outdoor","name":"สถานีไฟฟ้าแรงสูงน่านและน่าน2","name_en":"Nakhon Sawan substation","power":"substation","source":"http://www.mapillary.com/map/im/_WST7FIDNhMtIjF6dAqHTw","substation":"transmission","type":"multipolygon","voltage":"500000;115000","F_geometry":"center","Voltage_kV":500}},{"type":"Feature","id":94,"geometry":{"type":"Point","coordinates":[100.52485110000003,13.735964300000035,0]},"properties":{"OBJECTID":94,"F_id":"way/261079966","location":"outdoor","name":"สถานีไฟฟ้าแรงสูงน่านและน่าน2","name_en":"Nakhon Sawan substation","power":"substation","source":"http://www.mapillary.com/map/im/_WST7FIDNhMtIjF6dAqHTw","substation":"transmission","type":"multipolygon","voltage":"500000;115000","F_geometry":"center","Voltage_kV":500}},{"type":"Feature","id":95,"geometry":{"type":"Point","coordinates":[99.66651470000005,13.638091000000031,0]},"properties":{"OBJECTID":95,"F_id":"way/261489769","location":"outdoor","name":"สถานีไฟฟ้าแรงสูงจอมบึง","name_en":"Nakhon Sawan substation","power":"substation","source":"http://www.mapillary.com/map/im/_WST7FIDNhMtIjF6dAqHTw","substation":"transmission","type":"multipolygon","voltage":"500000","F_geometry":"center","Voltage_kV":500}},{"type":"Feature","id":96,"geometry":{"type":"Point","coordinates":[100.17703150000006,8.337239400000044,0]},"properties":{"OBJECTID":96,"F_id":"way/262248215","location":"outdoor","name":"สถานีไฟฟ้าแรงสูงจอมบึง","name_en":"Nakhon Sawan substation","power":"substation","source":"http://www.mapillary.com/map/im/_WST7FIDNhMtIjF6dAqHTw","substation":"transmission","type":"multipolygon","voltage":"500000","F_geometry":"center","Voltage_kV":500}},{"type":"Feature","id":97,"geometry":{"type":"Point","coordinates":[104.53954990000005,18.208192200000042,0]},"properties":{"OBJECTID":97,"F_id":"way/262579807","location":"outdoor","name":"สถานีไฟฟ้าแรงสูงจอมบึง","name_en":"Nakhon Sawan substation","power":"substation","source":"http://www.mapillary.com/map/im/_WST7FIDNhMtIjF6dAqHTw","substation":"transmission","type":"multipolygon","voltage":"230000","F_geometry":"center","Voltage_kV":230}},{"type":"Feature","id":98,"geometry":{"type":"Point","coordinates":[104.28540820000006,18.08281160000007,0]},"properties":{"OBJECTID":98,"F_id":"way/262666017","location":"outdoor","name":"สถานีไฟฟ้าแรงสูงจอมบึง","name_en":"Nakhon Sawan substation","power":"substation","source":"http://www.mapillary.com/map/im/_WST7FIDNhMtIjF6dAqHTw","substation":"transmission","type":"multipolygon","voltage":"230000","F_geometry":"center","Voltage_kV":230}},{"type":"Feature","id":99,"geometry":{"type":"Point","coordinates":[104.64632310000007,18.283793600000024,0]},"properties":{"OBJECTID":99,"F_id":"way/262680270","location":"outdoor","name":"สถานีไฟฟ้าแรงสูงจอมบึง","name_en":"Nakhon Sawan substation","power":"substation","source":"http://www.mapillary.com/map/im/_WST7FIDNhMtIjF6dAqHTw","substation":"transmission","type":"multipolygon","voltage":"115000","F_geometry":"center","Voltage_kV":115}},{"type":"Feature","id":100,"geometry":{"type":"Point","coordinates":[104.63710690000005,18.291671000000065,0]},"properties":{"OBJECTID":100,"F_id":"way/262680272","location":"outdoor","name":"สถานีไฟฟ้าแรงสูงจอมบึง","name_en":"Nakhon Sawan substation","power":"substation","source":"http://www.mapillary.com/map/im/_WST7FIDNhMtIjF6dAqHTw","substation":"transmission","type":"multipolygon","voltage":"115000","F_geometry":"center","Voltage_kV":115}},{"type":"Feature","id":101,"geometry":{"type":"Point","coordinates":[99.13226990000004,14.407507800000076,0]},"properties":{"OBJECTID":101,"F_id":"way/262815047","location":"outdoor","name":"สถานีไฟฟ้าแรงสูงจอมบึง","name_en":"Srinagarind Switchyard","power":"substation","source":"http://www.mapillary.com/map/im/_WST7FIDNhMtIjF6dAqHTw","substation":"transmission","type":"multipolygon","voltage":"230000;115000","F_geometry":"center","Voltage_kV":230}},{"type":"Feature","id":102,"geometry":{"type":"Point","coordinates":[100.92036120000006,13.075132200000041,0]},"properties":{"OBJECTID":102,"F_id":"way/265708436","location":"outdoor","name":"สถานีไฟฟ้าแรงสูงจอมบึง","name_en":"Srinagarind Switchyard","power":"substation","source":"http://www.mapillary.com/map/im/_WST7FIDNhMtIjF6dAqHTw","substation":"transmission","type":"multipolygon","voltage":"230000;115000","F_geometry":"center","Voltage_kV":230}},{"type":"Feature","id":103,"geometry":{"type":"Point","coordinates":[105.17780860000005,16.435867500000029,0]},"properties":{"OBJECTID":103,"F_id":"way/266095868","location":"outdoor","name":"สถานีไฟฟ้าแรงสูงจอมบึง","name_en":"Srinagarind Switchyard","power":"substation","source":"http://www.mapillary.com/map/im/_WST7FIDNhMtIjF6dAqHTw","substation":"transmission","type":"multipolygon","voltage":"115000","F_geometry":"center","Voltage_kV":115}},{"type":"Feature","id":104,"geometry":{"type":"Point","coordinates":[103.64066060000005,18.394407500000057,0]},"properties":{"OBJECTID":104,"F_id":"way/266144149","location":"outdoor","name":"สถานีไฟฟ้าแรงสูงจอมบึง","name_en":"Srinagarind Switchyard","power":"substation","source":"http://www.mapillary.com/map/im/_WST7FIDNhMtIjF6dAqHTw","substation":"transmission","type":"multipolygon","voltage":"115000","F_geometry":"center","Voltage_kV":115}},{"type":"Feature","id":105,"geometry":{"type":"Point","coordinates":[102.28994720000009,18.631614700000057,0]},"properties":{"OBJECTID":105,"F_id":"way/266165710","location":"outdoor","name":"ຫ\u0EB4ນເຫ\u0EB5ບ","name_en":"Hinheup Substation","power":"substation","source":"http://www.mapillary.com/map/im/_WST7FIDNhMtIjF6dAqHTw","substation":"transmission","type":"multipolygon","voltage":"230000;115000","F_geometry":"center","Voltage_kV":230}},{"type":"Feature","id":106,"geometry":{"type":"Point","coordinates":[100.55329310000008,13.827091400000029,0]},"properties":{"OBJECTID":106,"F_id":"way/274223991","location":"outdoor","name":"สถานีไฟฟ้าแรงสูงลาดพร้าว","name_en":"Lat Phrao High Voltage Substation","power":"substation","source":"http://www.mapillary.com/map/im/_WST7FIDNhMtIjF6dAqHTw","substation":"transmission","type":"multipolygon","voltage":"230000;115000;22000","F_geometry":"center","Voltage_kV":230}},{"type":"Feature","id":107,"geometry":{"type":"Point","coordinates":[100.27963830000004,5.304678000000024,0]},"properties":{"OBJECTID":107,"F_id":"way/274494141","location":"outdoor","name":"สถานีไฟฟ้าแรงสูงลาดพร้าว","name_en":"Lat Phrao High Voltage Substation","power":"substation","source":"http://www.mapillary.com/map/im/_WST7FIDNhMtIjF6dAqHTw","substation":"transmission","type":"multipolygon","voltage":"230000;115000;22000","F_geometry":"center","Voltage_kV":230}},{"type":"Feature","id":108,"geometry":{"type":"Point","coordinates":[104.75734380000006,17.384279200000037,0]},"properties":{"OBJECTID":108,"F_id":"way/274497912","location":"outdoor","name":"สถานีไฟฟ้าแรงสูงนครพนม 1","name_en":"Lat Phrao High Voltage Substation","power":"substation","source":"http://www.mapillary.com/map/im/_WST7FIDNhMtIjF6dAqHTw","substation":"transmission","type":"multipolygon","voltage":"230000;115000","F_geometry":"center","Voltage_kV":230}},{"type":"Feature","id":109,"geometry":{"type":"Point","coordinates":[100.30965790000005,5.4363238000000251,0]},"properties":{"OBJECTID":109,"F_id":"way/275921625","location":"outdoor","name":"สถานีไฟฟ้าแรงสูงนครพนม 1","name_en":"Lat Phrao High Voltage Substation","power":"substation","source":"http://www.mapillary.com/map/im/_WST7FIDNhMtIjF6dAqHTw","substation":"transmission","type":"multipolygon","voltage":"230000;115000","F_geometry":"center","Voltage_kV":230}},{"type":"Feature","id":110,"geometry":{"type":"Point","coordinates":[105.83343840000003,15.101628800000071,0]},"properties":{"OBJECTID":110,"F_id":"way/276491985","location":"outdoor","name":"Bang yo substation","name_en":"Lat Phrao High Voltage Substation","power":"substation","source":"Bing","substation":"transmission","type":"multipolygon","voltage":"115000","F_geometry":"center","Voltage_kV":115}},{"type":"Feature","id":111,"geometry":{"type":"Point","coordinates":[100.29753750000003,5.4018120000000636,0]},"properties":{"OBJECTID":111,"F_id":"way/277750011","location":"outdoor","name":"Bang yo substation","name_en":"Lat Phrao High Voltage Substation","power":"substation","source":"Bing","substation":"minor_distribution","type":"multipolygon","voltage":"115000","F_geometry":"center","Voltage_kV":115}},{"type":"Feature","id":112,"geometry":{"type":"Point","coordinates":[100.29818840000007,5.3733570000000555,0]},"properties":{"OBJECTID":112,"F_id":"way/277761522","location":"outdoor","name":"Pencawang Pembahagian Utama 33/11kV Bukit Gambir","name_en":"Lat Phrao High Voltage Substation","power":"substation","source":"https://www.mapillary.com/app/?pKey=oBVjNMyKwCulCmpZEKxWtV&focus=photo","substation":"transmission","type":"multipolygon","voltage":"33000;11000","F_geometry":"center","Voltage_kV":33}},{"type":"Feature","id":113,"geometry":{"type":"Point","coordinates":[102.45229460000007,18.933269700000039,0]},"properties":{"OBJECTID":113,"F_id":"way/278031845","location":"outdoor","name":"Pencawang Pembahagian Utama 33/11kV Bukit Gambir","name_en":"Lat Phrao High Voltage Substation","power":"substation","source":"https://www.mapillary.com/app/?pKey=oBVjNMyKwCulCmpZEKxWtV&focus=photo","substation":"transmission","type":"multipolygon","voltage":"115000","F_geometry":"center","Voltage_kV":115}},{"type":"Feature","id":114,"geometry":{"type":"Point","coordinates":[100.30986430000007,5.4028366000000574,0]},"properties":{"OBJECTID":114,"F_id":"way/278141616","location":"outdoor","name":"Pencawang Pembahagian Utama 33/11kV Bukit Gambir","name_en":"Lat Phrao High Voltage Substation","power":"substation","source":"https://www.mapillary.com/app/?pKey=oBVjNMyKwCulCmpZEKxWtV&focus=photo","substation":"transmission","type":"multipolygon","voltage":"115000","F_geometry":"center","Voltage_kV":115}},{"type":"Feature","id":115,"geometry":{"type":"Point","coordinates":[102.23687400000006,19.942618400000072,0]},"properties":{"OBJECTID":115,"F_id":"way/278938131","location":"outdoor","name":"Pencawang Pembahagian Utama 33/11kV Bukit Gambir","name_en":"Lat Phrao High Voltage Substation","power":"substation","source":"https://www.mapillary.com/app/?pKey=oBVjNMyKwCulCmpZEKxWtV&focus=photo","substation":"distribution","type":"multipolygon","voltage":"115000","F_geometry":"center","Voltage_kV":115}},{"type":"Feature","id":116,"geometry":{"type":"Point","coordinates":[102.12902780000007,19.858822300000043,0]},"properties":{"OBJECTID":116,"F_id":"way/278938210","location":"outdoor","name":"Luang Prabang 1","name_en":"Lat Phrao High Voltage Substation","power":"substation","source":"https://www.mapillary.com/app/?pKey=oBVjNMyKwCulCmpZEKxWtV&focus=photo","substation":"transmission","type":"multipolygon","voltage":"115000","F_geometry":"center","Voltage_kV":115}},{"type":"Feature","id":117,"geometry":{"type":"Point","coordinates":[101.98350150000005,4.8431102000000692,0]},"properties":{"OBJECTID":117,"F_id":"way/281778783","location":"outdoor","name":"Luang Prabang 1","name_en":"Lat Phrao High Voltage Substation","power":"substation","source":"https://www.mapillary.com/app/?pKey=oBVjNMyKwCulCmpZEKxWtV&focus=photo","substation":"transmission","type":"multipolygon","voltage":"275000","F_geometry":"center","Voltage_kV":275}},{"type":"Feature","id":118,"geometry":{"type":"Point","coordinates":[103.05297180000008,5.0729562000000215,0]},"properties":{"OBJECTID":118,"F_id":"way/283556913","location":"outdoor","name":"Pencawang Masuk Utama Kuala Berang","name_en":"Lat Phrao High Voltage Substation","power":"substation","source":"https://www.mapillary.com/app/?pKey=oBVjNMyKwCulCmpZEKxWtV&focus=photo","substation":"transmission","type":"multipolygon","voltage":"132000","F_geometry":"center","Voltage_kV":132}},{"type":"Feature","id":119,"geometry":{"type":"Point","coordinates":[102.91058490000006,5.0254462000000331,0]},"properties":{"OBJECTID":119,"F_id":"way/283556914","location":"outdoor","name":"Pencawang Masuk Utama Kuala Berang","name_en":"Lat Phrao High Voltage Substation","power":"substation","source":"https://www.mapillary.com/app/?pKey=oBVjNMyKwCulCmpZEKxWtV&focus=photo","substation":"transmission","type":"multipolygon","voltage":"132000","F_geometry":"center","Voltage_kV":132}},{"type":"Feature","id":120,"geometry":{"type":"Point","coordinates":[100.38463520000005,5.4213562000000479,0]},"properties":{"OBJECTID":120,"F_id":"way/283726688","location":"outdoor","name":"Pencawang Masuk Utama Kuala Berang","name_en":"Lat Phrao High Voltage Substation","power":"substation","source":"https://www.mapillary.com/app/?pKey=oBVjNMyKwCulCmpZEKxWtV&focus=photo","substation":"transmission","type":"multipolygon","voltage":"132000","F_geometry":"center","Voltage_kV":132}},{"type":"Feature","id":121,"geometry":{"type":"Point","coordinates":[100.15782180000008,6.3406010000000492,0]},"properties":{"OBJECTID":121,"F_id":"way/286559638","location":"outdoor","name":"Pencawang Masuk Utama Kuala Berang","name_en":"Lat Phrao High Voltage Substation","power":"substation","source":"https://www.mapillary.com/app/?pKey=oBVjNMyKwCulCmpZEKxWtV&focus=photo","substation":"transmission","type":"multipolygon","voltage":"275000;132000","F_geometry":"center","Voltage_kV":275}},{"type":"Feature","id":122,"geometry":{"type":"Point","coordinates":[100.28303700000004,6.488171100000045,0]},"properties":{"OBJECTID":122,"F_id":"way/286559640","location":"outdoor","name":"Pencawang Masuk Utama Kuala Berang","name_en":"Lat Phrao High Voltage Substation","power":"substation","source":"https://www.mapillary.com/app/?pKey=oBVjNMyKwCulCmpZEKxWtV&focus=photo","substation":"transmission","type":"multipolygon","voltage":"275000;132000","F_geometry":"center","Voltage_kV":275}},{"type":"Feature","id":123,"geometry":{"type":"Point","coordinates":[99.238391800000045,17.625718300000074,0]},"properties":{"OBJECTID":123,"F_id":"way/288783341","location":"outdoor","name":"สถานีไฟฟ้าแรงสูงเถิน","name_en":"Lat Phrao High Voltage Substation","power":"substation","source":"https://www.mapillary.com/app/?pKey=oBVjNMyKwCulCmpZEKxWtV&focus=photo","substation":"transmission","type":"multipolygon","voltage":"115000","F_geometry":"center","Voltage_kV":115}},{"type":"Feature","id":124,"geometry":{"type":"Point","coordinates":[101.11925620000005,4.7557337000000643,0]},"properties":{"OBJECTID":124,"F_id":"way/295379092","location":"indoor","name":"สถานีไฟฟ้าแรงสูงเถิน","name_en":"Lat Phrao High Voltage Substation","power":"substation","source":"https://www.mapillary.com/app/?pKey=oBVjNMyKwCulCmpZEKxWtV&focus=photo","substation":"transmission","type":"multipolygon","voltage":"132000","F_geometry":"center","Voltage_kV":132}},{"type":"Feature","id":125,"geometry":{"type":"Point","coordinates":[101.10907720000006,4.7472731000000294,0]},"properties":{"OBJECTID":125,"F_id":"way/295381308","location":"indoor","name":"TNB","name_en":"Lat Phrao High Voltage Substation","power":"substation","source":"https://www.mapillary.com/app/?pKey=oBVjNMyKwCulCmpZEKxWtV&focus=photo","substation":"transmission","type":"multipolygon","voltage":"132000","F_geometry":"center","Voltage_kV":132}},{"type":"Feature","id":126,"geometry":{"type":"Point","coordinates":[100.70418550000005,6.9567987000000358,0]},"properties":{"OBJECTID":126,"F_id":"way/295988731","location":"indoor","name":"สถานีไฟฟ้าแรงสูงสงขลา 2","name_en":"Lat Phrao High Voltage Substation","power":"substation","source":"https://www.mapillary.com/app/?pKey=oBVjNMyKwCulCmpZEKxWtV&focus=photo","substation":"transmission","type":"multipolygon","voltage":"230000","F_geometry":"center","Voltage_kV":230}},{"type":"Feature","id":127,"geometry":{"type":"Point","coordinates":[100.40821160000007,6.1496329000000287,0]},"properties":{"OBJECTID":127,"F_id":"way/296272255","location":"indoor","name":"Pencawang Pembahagian Utama Hospital Baru Alor Setar","name_en":"Lat Phrao High Voltage Substation","power":"substation","source":"Mapbox","substation":"transmission","type":"multipolygon","voltage":"230000","F_geometry":"center","Voltage_kV":230}},{"type":"Feature","id":128,"geometry":{"type":"Point","coordinates":[101.24926250000004,12.787246500000037,0]},"properties":{"OBJECTID":128,"F_id":"way/296560688","location":"outdoor","name":"สถานีไฟฟ้าแรงสูงบ้านค่าย","name_en":"Lat Phrao High Voltage Substation","power":"substation","source":"Mapbox","substation":"transmission","type":"multipolygon","voltage":"230000;115000","F_geometry":"center","Voltage_kV":230}},{"type":"Feature","id":129,"geometry":{"type":"Point","coordinates":[100.37667990000006,6.1823511000000622,0]},"properties":{"OBJECTID":129,"F_id":"way/296837012","location":"outdoor","name":"Pencawang Pembahagian Utama Bandar Diraja Muadzam Shah","name_en":"Lat Phrao High Voltage Substation","power":"substation","source":"Mapbox","substation":"transmission","type":"multipolygon","voltage":"33000","F_geometry":"center","Voltage_kV":33}},{"type":"Feature","id":130,"geometry":{"type":"Point","coordinates":[100.42352830000004,13.653334700000073,0]},"properties":{"OBJECTID":130,"F_id":"way/301623867","location":"outdoor","name":"สถานีไฟฟ้าแรงสูงธนบุรีใต้","name_en":"High Voltage Electricity Station of Southern Thonburi","power":"substation","source":"Mapbox","substation":"transmission","type":"multipolygon","voltage":"230000","F_geometry":"center","Voltage_kV":230}},{"type":"Feature","id":131,"geometry":{"type":"Point","coordinates":[99.899952200000087,6.3620778000000655,0]},"properties":{"OBJECTID":131,"F_id":"way/301665161","location":"outdoor","name":"PMU Teluk Apau","name_en":"High Voltage Electricity Station of Southern Thonburi","power":"substation","source":"Mapbox","substation":"transmission","type":"multipolygon","voltage":"132000","F_geometry":"center","Voltage_kV":132}},{"type":"Feature","id":132,"geometry":{"type":"Point","coordinates":[101.72801550000008,15.463512300000048,0]},"properties":{"OBJECTID":132,"F_id":"way/306689034","location":"outdoor","name":"สถานีไฟฟ้าบำเหน็จณรงค์","name_en":"Bamnet Narong High Voltage Substation","power":"substation","source":"Mapbox","substation":"distribution","type":"multipolygon","voltage":"230000;115000","F_geometry":"center","Voltage_kV":230}},{"type":"Feature","id":133,"geometry":{"type":"Point","coordinates":[101.45632180000007,15.205655200000024,0]},"properties":{"OBJECTID":133,"F_id":"way/306817346","location":"outdoor","name":"สถานีไฟฟ้าบำเหน็จณรงค์","name_en":"Bamnet Narong High Voltage Substation","power":"substation","source":"Mapbox","substation":"distribution","type":"multipolygon","voltage":"230000;115000","F_geometry":"center","Voltage_kV":230}},{"type":"Feature","id":134,"geometry":{"type":"Point","coordinates":[99.040448400000059,18.632221900000047,0]},"properties":{"OBJECTID":134,"F_id":"way/309854155","location":"outdoor","name":"สถานีไฟฟ้าแรงสูงลำพูน 1","name_en":"Bamnet Narong High Voltage Substation","power":"substation","source":"survey","substation":"transmission","type":"multipolygon","voltage":"115000","F_geometry":"center","Voltage_kV":115}},{"type":"Feature","id":135,"geometry":{"type":"Point","coordinates":[99.30239970000008,19.431081300000073,0]},"properties":{"OBJECTID":135,"F_id":"way/314249444","location":"outdoor","name":"สถานีไฟฟ้าแรงสูงลำพูน 1","name_en":"Bamnet Narong High Voltage Substation","power":"substation","source":"survey","substation":"transmission","type":"multipolygon","voltage":"115000","F_geometry":"center","Voltage_kV":115}},{"type":"Feature","id":136,"geometry":{"type":"Point","coordinates":[102.12835960000007,5.8139865000000555,0]},"properties":{"OBJECTID":136,"F_id":"way/314846699","location":"outdoor","name":"Pencawang Masuk Utama Tanah Merah (TMRH)","name_en":"Bamnet Narong High Voltage Substation","power":"substation","source":"survey","substation":"transmission","type":"multipolygon","voltage":"275000;132000;33000;11000","F_geometry":"center","Voltage_kV":275}},{"type":"Feature","id":137,"geometry":{"type":"Point","coordinates":[102.19462330000005,5.5981643000000645,0]},"properties":{"OBJECTID":137,"F_id":"way/314846700","location":"outdoor","name":"Pencawang Masuk Utama Kuala Krai","name_en":"Bamnet Narong High Voltage Substation","power":"substation","source":"survey","substation":"transmission","type":"multipolygon","voltage":"132000","F_geometry":"center","Voltage_kV":132}},{"type":"Feature","id":138,"geometry":{"type":"Point","coordinates":[99.512985100000037,19.277327300000024,0]},"properties":{"OBJECTID":138,"F_id":"way/315153937","location":"outdoor","name":"สถานีไฟฟ้าเวียงป่าเป้า","name_en":"Bamnet Narong High Voltage Substation","power":"substation","source":"survey","substation":"distribution","type":"multipolygon","voltage":"132000","F_geometry":"center","Voltage_kV":132}},{"type":"Feature","id":139,"geometry":{"type":"Point","coordinates":[101.05790430000008,4.8316234000000691,0]},"properties":{"OBJECTID":139,"F_id":"way/315925320","location":"outdoor","name":"สถานีไฟฟ้าเวียงป่าเป้า","name_en":"Bamnet Narong High Voltage Substation","power":"substation","source":"survey","substation":"transmission","type":"multipolygon","voltage":"132000","F_geometry":"center","Voltage_kV":132}},{"type":"Feature","id":140,"geometry":{"type":"Point","coordinates":[100.97652060000007,4.9598830000000476,0]},"properties":{"OBJECTID":140,"F_id":"way/315925323","location":"outdoor","name":"สถานีไฟฟ้าเวียงป่าเป้า","name_en":"Bamnet Narong High Voltage Substation","power":"substation","source":"survey","substation":"transmission","type":"multipolygon","voltage":"132000","F_geometry":"center","Voltage_kV":132}},{"type":"Feature","id":141,"geometry":{"type":"Point","coordinates":[101.28997010000006,5.0896947000000523,0]},"properties":{"OBJECTID":141,"F_id":"way/315933387","location":"outdoor","name":"สถานีไฟฟ้าเวียงป่าเป้า","name_en":"Bamnet Narong High Voltage Substation","power":"substation","source":"mapbox","substation":"transmission","type":"multipolygon","voltage":"132000","F_geometry":"center","Voltage_kV":132}},{"type":"Feature","id":142,"geometry":{"type":"Point","coordinates":[100.92442830000005,12.939574800000059,0]},"properties":{"OBJECTID":142,"F_id":"way/316801642","location":"outdoor","name":"สถานีไฟฟ้าแรงสูงบางละมุง","name_en":"Bamnet Narong High Voltage Substation","power":"substation","source":"mapbox","substation":"transmission","type":"multipolygon","voltage":"115000","F_geometry":"center","Voltage_kV":115}},{"type":"Feature","id":143,"geometry":{"type":"Point","coordinates":[101.12695940000003,4.6630439000000479,0]},"properties":{"OBJECTID":143,"F_id":"way/317124037","location":"outdoor","name":"สถานีไฟฟ้าแรงสูงบางละมุง","name_en":"Bamnet Narong High Voltage Substation","power":"substation","source":"mapbox","substation":"transmission","type":"multipolygon","voltage":"132000","F_geometry":"center","Voltage_kV":132}},{"type":"Feature","id":144,"geometry":{"type":"Point","coordinates":[101.13958290000005,4.6911596000000486,0]},"properties":{"OBJECTID":144,"F_id":"way/317124038","location":"outdoor","name":"สถานีไฟฟ้าแรงสูงบางละมุง","name_en":"Bamnet Narong High Voltage Substation","power":"substation","source":"mapbox","substation":"transmission","type":"multipolygon","voltage":"275000;132000","F_geometry":"center","Voltage_kV":275}},{"type":"Feature","id":145,"geometry":{"type":"Point","coordinates":[100.54267680000004,5.2896061000000714,0]},"properties":{"OBJECTID":145,"F_id":"way/317226720","location":"outdoor","name":"สถานีไฟฟ้าแรงสูงบางละมุง","name_en":"Bamnet Narong High Voltage Substation","power":"substation","source":"mapbox","substation":"generation","type":"multipolygon","voltage":"500000;275000","F_geometry":"center","Voltage_kV":500}},{"type":"Feature","id":146,"geometry":{"type":"Point","coordinates":[100.42053980000009,6.2343953000000738,0]},"properties":{"OBJECTID":146,"F_id":"way/318838877","location":"outdoor","name":"Pencawang Masuk Utama 132/33/11kV Tanjung Pauh","name_en":"Bamnet Narong High Voltage Substation","power":"substation","source":"Bing 2013;survey","substation":"transmission","type":"multipolygon","voltage":"132000;33000;11000","F_geometry":"center","Voltage_kV":132}},{"type":"Feature","id":147,"geometry":{"type":"Point","coordinates":[99.74106990000007,18.311226100000056,0]},"properties":{"OBJECTID":147,"F_id":"way/320321654","location":"outdoor","name":"Pencawang Masuk Utama 132/33/11kV Tanjung Pauh","name_en":"Bamnet Narong High Voltage Substation","power":"substation","source":"Bing 2013;survey","substation":"transmission","type":"multipolygon","voltage":"132000;33000;11000","F_geometry":"center","Voltage_kV":132}},{"type":"Feature","id":148,"geometry":{"type":"Point","coordinates":[97.182294500000069,5.1146925000000465,0]},"properties":{"OBJECTID":148,"F_id":"way/320433823","location":"outdoor","name":"Gardu Induk Lhokseumawe","name_en":"Bamnet Narong High Voltage Substation","power":"substation","source":"Bing 2013;survey","substation":"transmission","type":"multipolygon","voltage":"150000","F_geometry":"center","Voltage_kV":150}},{"type":"Feature","id":149,"geometry":{"type":"Point","coordinates":[101.69617400000004,5.6490697000000409,0]},"properties":{"OBJECTID":149,"F_id":"way/320523185","location":"outdoor","name":"Gardu Induk Lhokseumawe","name_en":"Bamnet Narong High Voltage Substation","power":"substation","source":"mapbox","substation":"transmission","type":"multipolygon","voltage":"150000","F_geometry":"center","Voltage_kV":150}},{"type":"Feature","id":150,"geometry":{"type":"Point","coordinates":[101.29696020000006,5.4089325000000485,0]},"properties":{"OBJECTID":150,"F_id":"way/320730394","location":"outdoor","name":"Gardu Induk Lhokseumawe","name_en":"Bamnet Narong High Voltage Substation","power":"substation","source":"mapbox","substation":"transmission","type":"multipolygon","voltage":"275000","F_geometry":"center","Voltage_kV":275}},{"type":"Feature","id":151,"geometry":{"type":"Point","coordinates":[100.53361530000006,5.8120799000000716,0]},"properties":{"OBJECTID":151,"F_id":"way/324258659","location":"outdoor","name":"PMU Gurun (East)","name_en":"Bamnet Narong High Voltage Substation","power":"substation","source":"mapbox","substation":"converter","type":"multipolygon","voltage":"300000;275000;132000","F_geometry":"center","Voltage_kV":300}},{"type":"Feature","id":152,"geometry":{"type":"Point","coordinates":[100.45226060000005,6.7157175000000393,0]},"properties":{"OBJECTID":152,"F_id":"way/324258748","location":"outdoor","name":"สถานีไฟฟ้าแรงสูงคลองแงะ","name_en":"Khlong Ngae Converter Station","power":"substation","source":"mapbox","substation":"converter","type":"multipolygon","voltage":"300000;230000;115000","F_geometry":"center","Voltage_kV":300}},{"type":"Feature","id":153,"geometry":{"type":"Point","coordinates":[100.35625670000007,6.0877781000000368,0]},"properties":{"OBJECTID":153,"F_id":"way/326097227","location":"outdoor","name":"Pencawang Masuk Utama Kota Setar","name_en":"Khlong Ngae Converter Station","power":"substation","source":"Mapbox","substation":"transmission","type":"multipolygon","voltage":"275000;132000","F_geometry":"center","Voltage_kV":275}},{"type":"Feature","id":154,"geometry":{"type":"Point","coordinates":[98.599477800000045,16.718875700000069,0]},"properties":{"OBJECTID":154,"F_id":"way/327257462","location":"outdoor","name":"สถานีไฟฟ้าแรงสูงแม่สอด","name_en":"Khlong Ngae Converter Station","power":"substation","source":"Mapbox","substation":"transmission","type":"multipolygon","voltage":"275000;132000","F_geometry":"center","Voltage_kV":275}},{"type":"Feature","id":155,"geometry":{"type":"Point","coordinates":[98.963999500000057,18.915955100000076,0]},"properties":{"OBJECTID":155,"F_id":"way/327351322","location":"outdoor","name":"สถานีไฟฟ้าแม่ริม","name_en":"Khlong Ngae Converter Station","power":"substation","source":"Mapbox","substation":"transmission","type":"multipolygon","voltage":"275000;132000","F_geometry":"center","Voltage_kV":275}},{"type":"Feature","id":156,"geometry":{"type":"Point","coordinates":[100.43814380000003,6.4343395000000214,0]},"properties":{"OBJECTID":156,"F_id":"way/327352930","location":"outdoor","name":"Pencawang Pembahagian Utama PPB Changlun 33/11kV","name_en":"Khlong Ngae Converter Station","power":"substation","source":"Bing 2013","substation":"distribution","type":"multipolygon","voltage":"33000;11000","F_geometry":"center","Voltage_kV":33}},{"type":"Feature","id":157,"geometry":{"type":"Point","coordinates":[100.52370070000006,5.6971840000000498,0]},"properties":{"OBJECTID":157,"F_id":"way/327964613","location":"outdoor","name":"Pencawang Pembahagian Utama PPB Changlun 33/11kV","name_en":"Khlong Ngae Converter Station","power":"substation","source":"Bing 2013","substation":"transmission","type":"multipolygon","voltage":"132000","F_geometry":"center","Voltage_kV":132}},{"type":"Feature","id":158,"geometry":{"type":"Point","coordinates":[100.43320830000005,6.9947922000000631,0]},"properties":{"OBJECTID":158,"F_id":"way/332365439","location":"outdoor","name":"สถานีไฟฟ้าแรงสูงหาดใหญ่ 1","name_en":"Khlong Ngae Converter Station","power":"substation","source":"Bing 2013","substation":"transmission","type":"multipolygon","voltage":"115000","F_geometry":"center","Voltage_kV":115}},{"type":"Feature","id":159,"geometry":{"type":"Point","coordinates":[102.70786310000005,18.235544300000072,0]},"properties":{"OBJECTID":159,"F_id":"way/334010481","location":"outdoor","name":"สถานีไฟฟ้าแรงสูงหาดใหญ่ 1","name_en":"Khlong Ngae Converter Station","power":"substation","source":"Bing 2013","substation":"transmission","type":"multipolygon","voltage":"115000","F_geometry":"center","Voltage_kV":115}},{"type":"Feature","id":160,"geometry":{"type":"Point","coordinates":[102.72320130000008,18.037761100000068,0]},"properties":{"OBJECTID":160,"F_id":"way/334018210","location":"outdoor","name":"ສະຖານນຈ\u0EC8າຍໄຟຟ\u0EC9າ ໂຄກສະອະດ","name_en":"Khoksaad Substation","power":"substation","source":"Bing 2013","substation":"transmission","type":"multipolygon","voltage":"115000","F_geometry":"center","Voltage_kV":115}},{"type":"Feature","id":161,"geometry":{"type":"Point","coordinates":[99.498615800000039,14.126540500000033,0]},"properties":{"OBJECTID":161,"F_id":"way/334185872","location":"outdoor","name":"สถานีไฟฟ้าแรงสูงกาญจนบุรี 2","name_en":"Khoksaad Substation","power":"substation","source":"Bing 2013","substation":"transmission","type":"multipolygon","voltage":"230000;115000","F_geometry":"center","Voltage_kV":230}},{"type":"Feature","id":162,"geometry":{"type":"Point","coordinates":[99.497877600000038,14.125110900000038,0]},"properties":{"OBJECTID":162,"F_id":"way/334185873","location":"outdoor","name":"สถานีไฟฟ้ากาญจนบุรี 2","name_en":"Khoksaad Substation","power":"substation","source":"Bing 2013","substation":"distribution","type":"multipolygon","voltage":"230000;115000","F_geometry":"center","Voltage_kV":230}},{"type":"Feature","id":163,"geometry":{"type":"Point","coordinates":[102.87311450000004,18.167016300000057,0]},"properties":{"OBJECTID":163,"F_id":"way/334295556","location":"outdoor","name":"Nabong","name_en":"Khoksaad Substation","power":"substation","source":"Bing 2013","substation":"transmission","type":"multipolygon","voltage":"500000;230000;115000","F_geometry":"center","Voltage_kV":500}},{"type":"Feature","id":164,"geometry":{"type":"Point","coordinates":[98.906079700000078,18.455125800000076,0]},"properties":{"OBJECTID":164,"F_id":"way/335326026","location":"outdoor","name":"สถานีไฟฟ้าป่าซาง","name_en":"Provincial Electric Authority, Pa Sang","power":"substation","source":"Bing 2013","substation":"distribution","type":"multipolygon","voltage":"500000;230000;115000","F_geometry":"center","Voltage_kV":500}},{"type":"Feature","id":165,"geometry":{"type":"Point","coordinates":[102.78988880000009,17.449872300000038,0]},"properties":{"OBJECTID":165,"F_id":"way/343022156","location":"outdoor","name":"สถานีไฟฟ้าแรงสูงอุดรธานี 1","name_en":"Provincial Electric Authority, Pa Sang","power":"substation","source":"Bing 2013","substation":"transmission","type":"multipolygon","voltage":"115000","F_geometry":"center","Voltage_kV":115}},{"type":"Feature","id":166,"geometry":{"type":"Point","coordinates":[102.85160970000004,17.374296400000048,0]},"properties":{"OBJECTID":166,"F_id":"way/343025639","location":"outdoor","name":"สถานีไฟฟ้าแรงสูงอุดรธานี 2","name_en":"Provincial Electric Authority, Pa Sang","power":"substation","source":"Bing 2013","substation":"transmission","type":"multipolygon","voltage":"115000","F_geometry":"center","Voltage_kV":115}},{"type":"Feature","id":167,"geometry":{"type":"Point","coordinates":[102.93774610000008,17.351090300000067,0]},"properties":{"OBJECTID":167,"F_id":"way/343034987","location":"outdoor","name":"สถานีไฟฟ้าแรงสูงอุดรธานี 3","name_en":"Provincial Electric Authority, Pa Sang","power":"substation","source":"Bing 2013","substation":"transmission","type":"multipolygon","voltage":"500000;230000;115000","F_geometry":"center","Voltage_kV":500}},{"type":"Feature","id":168,"geometry":{"type":"Point","coordinates":[100.40872100000007,5.375955900000065,0]},"properties":{"OBJECTID":168,"F_id":"way/343156651","location":"outdoor","name":"สถานีไฟฟ้าแรงสูงอุดรธานี 3","name_en":"Provincial Electric Authority, Pa Sang","power":"substation","source":"Bing","substation":"transmission","type":"multipolygon","voltage":"275000","F_geometry":"center","Voltage_kV":275}},{"type":"Feature","id":169,"geometry":{"type":"Point","coordinates":[100.42031550000007,5.3456905000000461,0]},"properties":{"OBJECTID":169,"F_id":"way/343157665","location":"outdoor","name":"สถานีไฟฟ้าแรงสูงอุดรธานี 3","name_en":"Provincial Electric Authority, Pa Sang","power":"substation","source":"Bing","substation":"transmission","type":"multipolygon","voltage":"275000","F_geometry":"center","Voltage_kV":275}},{"type":"Feature","id":170,"geometry":{"type":"Point","coordinates":[100.44369620000003,5.3036503000000721,0]},"properties":{"OBJECTID":170,"F_id":"way/343159894","location":"outdoor","name":"สถานีไฟฟ้าแรงสูงอุดรธานี 3","name_en":"Provincial Electric Authority, Pa Sang","power":"substation","source":"Bing","substation":"transmission","type":"multipolygon","voltage":"132000","F_geometry":"center","Voltage_kV":132}},{"type":"Feature","id":171,"geometry":{"type":"Point","coordinates":[100.45468190000008,5.2755687000000648,0]},"properties":{"OBJECTID":171,"F_id":"way/343160946","location":"outdoor","name":"สถานีไฟฟ้าแรงสูงอุดรธานี 3","name_en":"Provincial Electric Authority, Pa Sang","power":"substation","source":"Bing","substation":"transmission","type":"multipolygon","voltage":"132000","F_geometry":"center","Voltage_kV":132}},{"type":"Feature","id":172,"geometry":{"type":"Point","coordinates":[100.45635960000004,5.2678535000000579,0]},"properties":{"OBJECTID":172,"F_id":"way/343186249","location":"outdoor","name":"สถานีไฟฟ้าแรงสูงอุดรธานี 3","name_en":"Provincial Electric Authority, Pa Sang","power":"substation","source":"Bing","substation":"transmission","type":"multipolygon","voltage":"275000;132000","F_geometry":"center","Voltage_kV":275}},{"type":"Feature","id":173,"geometry":{"type":"Point","coordinates":[100.41308630000003,5.3135867000000303,0]},"properties":{"OBJECTID":173,"F_id":"way/343186662","location":"outdoor","name":"สถานีไฟฟ้าแรงสูงอุดรธานี 3","name_en":"Provincial Electric Authority, Pa Sang","power":"substation","source":"Bing","substation":"transmission","type":"multipolygon","voltage":"275000","F_geometry":"center","Voltage_kV":275}},{"type":"Feature","id":174,"geometry":{"type":"Point","coordinates":[100.68869160000008,13.638546400000052,0]},"properties":{"OBJECTID":174,"F_id":"way/345996520","location":"outdoor","name":"สถานีไฟฟ้าแรงสูงบางพลี","name_en":"Bang Phli High Voltage Power Station","power":"substation","source":"Bing","substation":"transmission","type":"multipolygon","voltage":"500000;230000;115000","F_geometry":"center","Voltage_kV":500}},{"type":"Feature","id":175,"geometry":{"type":"Point","coordinates":[100.53213970000007,13.76367810000005,0]},"properties":{"OBJECTID":175,"F_id":"way/346752955","location":"outdoor","name":"สถานีไฟฟ้าแรงสูงบางพลี","name_en":"Bang Phli High Voltage Power Station","power":"substation","source":"Bing","substation":"transmission","type":"multipolygon","voltage":"500000;230000;115000","F_geometry":"center","Voltage_kV":500}},{"type":"Feature","id":176,"geometry":{"type":"Point","coordinates":[100.40293220000007,6.1696208000000752,0]},"properties":{"OBJECTID":176,"F_id":"way/354300361","location":"indoor","name":"Pencawang Elektrik Taman Nabira","name_en":"Bang Phli High Voltage Power Station","power":"substation","source":"Mapbox;survey","substation":"minor_distribution","type":"multipolygon","voltage":"500000;230000;115000","F_geometry":"center","Voltage_kV":500}},{"type":"Feature","id":177,"geometry":{"type":"Point","coordinates":[98.928688800000032,17.834364400000027,0]},"properties":{"OBJECTID":177,"F_id":"way/362338896","location":"indoor","name":"สถานีไฟฟ้าลี้","name_en":"Bang Phli High Voltage Power Station","power":"substation","source":"Mapbox;survey","substation":"distribution","type":"multipolygon","voltage":"500000;230000;115000","F_geometry":"center","Voltage_kV":500}},{"type":"Feature","id":178,"geometry":{"type":"Point","coordinates":[99.888516300000049,13.606740600000023,0]},"properties":{"OBJECTID":178,"F_id":"way/362353137","location":"indoor","name":"สถานีไฟฟ้าลี้","name_en":"Bang Phli High Voltage Power Station","power":"substation","source":"Mapbox;survey","substation":"transmission","type":"multipolygon","voltage":"500000;230000;115000","F_geometry":"center","Voltage_kV":500}},{"type":"Feature","id":179,"geometry":{"type":"Point","coordinates":[99.884006000000056,13.603966800000023,0]},"properties":{"OBJECTID":179,"F_id":"way/362353140","location":"indoor","name":"สถานีไฟฟ้าลี้","name_en":"Bang Phli High Voltage Power Station","power":"substation","source":"Mapbox;survey","substation":"transmission","type":"multipolygon","voltage":"500000;230000;115000","F_geometry":"center","Voltage_kV":500}},{"type":"Feature","id":180,"geometry":{"type":"Point","coordinates":[100.61238650000007,14.078324300000077,0]},"properties":{"OBJECTID":180,"F_id":"way/366089131","location":"indoor","name":"Substation 2","name_en":"Bang Phli High Voltage Power Station","power":"substation","source":"Mapbox;survey","substation":"transmission","type":"multipolygon","voltage":"500000;230000;115000","F_geometry":"center","Voltage_kV":500}},{"type":"Feature","id":181,"geometry":{"type":"Point","coordinates":[102.62441400000006,17.999713500000041,0]},"properties":{"OBJECTID":181,"F_id":"way/369074502","location":"outdoor","name":"Phonetong Substation","name_en":"Bang Phli High Voltage Power Station","power":"substation","source":"Mapbox;survey","substation":"transmission","type":"multipolygon","voltage":"115000","F_geometry":"center","Voltage_kV":115}},{"type":"Feature","id":182,"geometry":{"type":"Point","coordinates":[99.038602600000047,18.590420100000074,0]},"properties":{"OBJECTID":182,"F_id":"way/369448750","location":"outdoor","name":"Phonetong Substation","name_en":"Bang Phli High Voltage Power Station","power":"substation","source":"Mapbox;survey","substation":"transmission","type":"multipolygon","voltage":"115000","F_geometry":"center","Voltage_kV":115}},{"type":"Feature","id":183,"geometry":{"type":"Point","coordinates":[102.61819180000003,17.905539600000054,0]},"properties":{"OBJECTID":183,"F_id":"way/370524726","location":"outdoor","name":"Phonetong Substation","name_en":"Bang Phli High Voltage Power Station","power":"substation","source":"Mapbox;survey","substation":"transmission","type":"multipolygon","voltage":"115000","F_geometry":"center","Voltage_kV":115}},{"type":"Feature","id":184,"geometry":{"type":"Point","coordinates":[100.48878690000004,5.1501769000000763,0]},"properties":{"OBJECTID":184,"F_id":"way/373368334","location":"indoor","name":"Phonetong Substation","name_en":"Bang Phli High Voltage Power Station","power":"substation","source":"Mapbox;survey","substation":"distribution","type":"multipolygon","voltage":"115000","F_geometry":"center","Voltage_kV":115}},{"type":"Feature","id":185,"geometry":{"type":"Point","coordinates":[99.54201130000007,14.024452200000042,0]},"properties":{"OBJECTID":185,"F_id":"way/374282903","location":"outdoor","name":"สถานีไฟฟ้าแรงสูงกาญจนบุรี 1","name_en":"Bang Phli High Voltage Power Station","power":"substation","source":"Bing","substation":"transmission","type":"multipolygon","voltage":"115000","F_geometry":"center","Voltage_kV":115}},{"type":"Feature","id":186,"geometry":{"type":"Point","coordinates":[99.628227800000047,13.975875400000064,0]},"properties":{"OBJECTID":186,"F_id":"way/376020863","location":"outdoor","name":"สถานีไฟฟ้าแรงสูงท่าม่วง","name_en":"Tha Muang High Voltage Substation","power":"substation","source":"Bing","substation":"distribution","type":"multipolygon","voltage":"115000;22000","F_geometry":"center","Voltage_kV":115}},{"type":"Feature","id":187,"geometry":{"type":"Point","coordinates":[99.141995500000064,16.810303800000042,0]},"properties":{"OBJECTID":187,"F_id":"way/377077088","location":"outdoor","name":"สถานีไฟฟ้าแรงสูงตาก 2","name_en":"Tha Muang High Voltage Substation","power":"substation","source":"survey;Mapbox","substation":"transmission","type":"multipolygon","voltage":"230000;115000","F_geometry":"center","Voltage_kV":230}},{"type":"Feature","id":188,"geometry":{"type":"Point","coordinates":[100.56458730000008,17.761045700000068,0]},"properties":{"OBJECTID":188,"F_id":"way/377690937","location":"outdoor","name":"เขื่อนสิริกิติ์","name_en":"Tha Muang High Voltage Substation","power":"substation","source":"Mapbox","substation":"transmission","type":"multipolygon","voltage":"230000;115000","F_geometry":"center","Voltage_kV":230}},{"type":"Feature","id":189,"geometry":{"type":"Point","coordinates":[100.77862290000007,14.227354200000036,0]},"properties":{"OBJECTID":189,"F_id":"way/381823390","location":"outdoor","name":"สถานีไฟฟ้าแรงสูงวังน้อย","name_en":"Tha Muang High Voltage Substation","power":"substation","source":"Mapbox","substation":"transmission","type":"multipolygon","voltage":"500000;230000","F_geometry":"center","Voltage_kV":500}},{"type":"Feature","id":190,"geometry":{"type":"Point","coordinates":[100.90085010000007,14.715219400000024,0]},"properties":{"OBJECTID":190,"F_id":"way/381823433","location":"outdoor","name":"สถานีไฟฟ้าพุแค","name_en":"Tha Muang High Voltage Substation","power":"substation","source":"Mapbox","substation":"distribution","type":"multipolygon","voltage":"500000;230000","F_geometry":"center","Voltage_kV":500}},{"type":"Feature","id":191,"geometry":{"type":"Point","coordinates":[101.02521800000005,14.603557200000068,0]},"properties":{"OBJECTID":191,"F_id":"way/381823435","location":"outdoor","name":"สถานีไฟฟ้าแรงสูงแก่งคอย","name_en":"Tha Muang High Voltage Substation","power":"substation","source":"Mapbox","substation":"transmission","type":"multipolygon","voltage":"230000","F_geometry":"center","Voltage_kV":230}},{"type":"Feature","id":192,"geometry":{"type":"Point","coordinates":[98.516530900000078,8.5136378000000263,0]},"properties":{"OBJECTID":192,"F_id":"way/381850832","location":"outdoor","name":"สถานีไฟฟ้าแรงสูงพังงา 2","name_en":"Tha Muang High Voltage Substation","power":"substation","source":"Mapbox","substation":"transmission","type":"multipolygon","voltage":"230000;115000","F_geometry":"center","Voltage_kV":230}},{"type":"Feature","id":193,"geometry":{"type":"Point","coordinates":[98.365884200000039,7.9616587000000436,0]},"properties":{"OBJECTID":193,"F_id":"way/381850842","location":"outdoor","name":"สถานีไฟฟ้าแรงสูงภูเก็ต 3","name_en":"Tha Muang High Voltage Substation","power":"substation","source":"Mapbox","substation":"transmission","type":"multipolygon","voltage":"500000;230000;115000","F_geometry":"center","Voltage_kV":500}},{"type":"Feature","id":194,"geometry":{"type":"Point","coordinates":[104.97622110000003,11.424171700000045,0]},"properties":{"OBJECTID":194,"F_id":"way/382209884","location":"outdoor","name":"GS7","name_en":"Tha Muang High Voltage Substation","power":"substation","source":"Mapbox","substation":"transmission","type":"multipolygon","voltage":"230000;115000","F_geometry":"center","Voltage_kV":230}},{"type":"Feature","id":195,"geometry":{"type":"Point","coordinates":[100.97235440000009,14.571555700000033,0]},"properties":{"OBJECTID":195,"F_id":"way/382333985","location":"outdoor","name":"GS7","name_en":"Tha Muang High Voltage Substation","power":"substation","source":"Mapbox","substation":"transmission","type":"multipolygon","voltage":"230000;115000","F_geometry":"center","Voltage_kV":230}},{"type":"Feature","id":196,"geometry":{"type":"Point","coordinates":[103.20593910000008,17.36068460000007,0]},"properties":{"OBJECTID":196,"F_id":"way/382334115","location":"outdoor","name":"สถานีไฟฟ้าแรงสูงหนองหาน","name_en":"Tha Muang High Voltage Substation","power":"substation","source":"Mapbox","substation":"transmission","type":"multipolygon","voltage":"115000","F_geometry":"center","Voltage_kV":115}},{"type":"Feature","id":197,"geometry":{"type":"Point","coordinates":[102.74705120000004,16.416226900000026,0]},"properties":{"OBJECTID":197,"F_id":"way/382334126","location":"outdoor","name":"สถานีไฟฟ้าแรงสูงข่อนแก่น 3","name_en":"Khon Kaen Switching Station","power":"substation","source":"GPS;sign","substation":"transmission","type":"multipolygon","voltage":"230000;115000","F_geometry":"center","Voltage_kV":230}},{"type":"Feature","id":198,"geometry":{"type":"Point","coordinates":[102.81496950000007,16.411627400000043,0]},"properties":{"OBJECTID":198,"F_id":"way/382334127","location":"outdoor","name":"สถานีไฟฟ้าแรงสูงขอนแก่น 1","name_en":"Khon Kaen 1 Substation","power":"substation","source":"GPS;sign","substation":"transmission","type":"multipolygon","voltage":"230000;115000","F_geometry":"center","Voltage_kV":230}},{"type":"Feature","id":199,"geometry":{"type":"Point","coordinates":[102.87283080000009,16.41763590000005,0]},"properties":{"OBJECTID":199,"F_id":"way/382334128","location":"outdoor","name":"สถานีไฟฟ้าแรงสูงขอนแก่น 2","name_en":"Substation Khon Kaen 2","power":"substation","source":"GPS;sign","substation":"transmission","type":"multipolygon","voltage":"115000","F_geometry":"center","Voltage_kV":115}},{"type":"Feature","id":200,"geometry":{"type":"Point","coordinates":[102.80115520000004,16.50678060000007,0]},"properties":{"OBJECTID":200,"F_id":"way/382334130","location":"outdoor","name":"สถานีไฟฟ้า ขอนแก่น 3","name_en":"Substation Khon Kaen 3","power":"substation","source":"GPS; sign","substation":"distribution","type":"multipolygon","voltage":"115000","F_geometry":"center","Voltage_kV":115}},{"type":"Feature","id":201,"geometry":{"type":"Point","coordinates":[102.23205200000007,6.1133042000000728,0]},"properties":{"OBJECTID":201,"F_id":"way/383950282","location":"outdoor","name":"สถานีไฟฟ้า ขอนแก่น 3","name_en":"Substation Khon Kaen 3","power":"substation","source":"GPS; sign","substation":"distribution","type":"multipolygon","voltage":"115000","F_geometry":"center","Voltage_kV":115}},{"type":"Feature","id":202,"geometry":{"type":"Point","coordinates":[99.736887300000035,18.280412000000069,0]},"properties":{"OBJECTID":202,"F_id":"way/384684882","location":"outdoor","name":"สถานีไฟฟ้าแรงสูงแม่เมาะ 4","name_en":"Substation Khon Kaen 3","power":"substation","source":"GPS; sign","substation":"transmission","type":"multipolygon","voltage":"230000","F_geometry":"center","Voltage_kV":230}},{"type":"Feature","id":203,"geometry":{"type":"Point","coordinates":[100.60844360000004,14.076436700000045,0]},"properties":{"OBJECTID":203,"F_id":"way/385955320","location":"outdoor","name":"Sub-Station 10","name_en":"Substation Khon Kaen 3","power":"substation","source":"GPS; sign","substation":"transmission","type":"multipolygon","voltage":"230000","F_geometry":"center","Voltage_kV":230}},{"type":"Feature","id":204,"geometry":{"type":"Point","coordinates":[100.61389160000004,14.08002700000003,0]},"properties":{"OBJECTID":204,"F_id":"way/385957660","location":"outdoor","name":"Sub-station - 7, NERA Telecommunication","name_en":"Substation Khon Kaen 3","power":"substation","source":"GPS; sign","substation":"transmission","type":"multipolygon","voltage":"230000","F_geometry":"center","Voltage_kV":230}},{"type":"Feature","id":205,"geometry":{"type":"Point","coordinates":[100.61400490000005,14.080021200000033,0]},"properties":{"OBJECTID":205,"F_id":"way/385958218","location":"outdoor","name":"Sub-station house","name_en":"Substation Khon Kaen 3","power":"substation","source":"GPS; sign","substation":"transmission","type":"multipolygon","voltage":"230000","F_geometry":"center","Voltage_kV":230}},{"type":"Feature","id":206,"geometry":{"type":"Point","coordinates":[98.515818100000047,8.517647800000077,0]},"properties":{"OBJECTID":206,"F_id":"way/386478685","location":"outdoor","name":"สถานีไฟฟ้าแรงสูงพังงา","name_en":"Substation Khon Kaen 3","power":"substation","source":"GPS; sign","substation":"transmission","type":"multipolygon","voltage":"115000","F_geometry":"center","Voltage_kV":115}},{"type":"Feature","id":207,"geometry":{"type":"Point","coordinates":[99.790266000000088,13.504248600000039,0]},"properties":{"OBJECTID":207,"F_id":"way/387737843","location":"outdoor","name":"สถานีไฟฟ้าแรงสูงราชบุรี 2","name_en":"Substation Khon Kaen 3","power":"substation","source":"GPS; sign","substation":"transmission","type":"multipolygon","voltage":"230000;115000","F_geometry":"center","Voltage_kV":230}},{"type":"Feature","id":208,"geometry":{"type":"Point","coordinates":[98.594542800000056,9.7427428000000305,0]},"properties":{"OBJECTID":208,"F_id":"way/387737848","location":"outdoor","name":"สถานีไฟฟ้าแรงสูงระนอง","name_en":"Substation Khon Kaen 3","power":"substation","source":"GPS; sign","substation":"transmission","type":"multipolygon","voltage":"115000","F_geometry":"center","Voltage_kV":115}},{"type":"Feature","id":209,"geometry":{"type":"Point","coordinates":[99.507835200000045,11.40606820000005,0]},"properties":{"OBJECTID":209,"F_id":"way/388836605","location":"outdoor","name":"สถานีไฟฟ้าแรงสูงบางสะพาน 1","name_en":"Bang Saphan 1 High Voltage Substation","power":"substation","source":"GPS; sign","substation":"transmission","type":"multipolygon","voltage":"500000;230000;115000","F_geometry":"center","Voltage_kV":500}},{"type":"Feature","id":210,"geometry":{"type":"Point","coordinates":[100.47555320000004,6.1592779000000633,0]},"properties":{"OBJECTID":210,"F_id":"way/388933042","location":"indoor","name":"Pencawang Elektrik Sekolah Kebangsaan Jabi","name_en":"Bang Saphan 1 High Voltage Substation","power":"substation","source":"GPS; sign","substation":"transmission","type":"multipolygon","voltage":"500000;230000;115000","F_geometry":"center","Voltage_kV":500}},{"type":"Feature","id":211,"geometry":{"type":"Point","coordinates":[98.335864400000048,8.125792400000023,0]},"properties":{"OBJECTID":211,"F_id":"way/388933999","location":"indoor","name":"Pencawang Elektrik Sekolah Kebangsaan Jabi","name_en":"Bang Saphan 1 High Voltage Substation","power":"substation","source":"GPS; sign","substation":"transmission","type":"multipolygon","voltage":"500000;230000;115000","F_geometry":"center","Voltage_kV":500}},{"type":"Feature","id":212,"geometry":{"type":"Point","coordinates":[100.26100310000004,6.2279632000000333,0]},"properties":{"OBJECTID":212,"F_id":"way/389561255","location":"indoor","name":"Pencawang Pembahagi Utama Jerlun","name_en":"Bang Saphan 1 High Voltage Substation","power":"substation","source":"GPS; sign","substation":"distribution","type":"multipolygon","voltage":"500000;230000;115000","F_geometry":"center","Voltage_kV":500}},{"type":"Feature","id":213,"geometry":{"type":"Point","coordinates":[104.34585730000003,15.073086300000057,0]},"properties":{"OBJECTID":213,"F_id":"way/394163994","location":"outdoor","name":"สถานีไฟฟ้าแรงสูงศรีสะเกษ","name_en":"Bang Saphan 1 High Voltage Substation","power":"substation","source":"GPS; sign","substation":"transmission","type":"multipolygon","voltage":"115000","F_geometry":"center","Voltage_kV":115}},{"type":"Feature","id":214,"geometry":{"type":"Point","coordinates":[100.42265710000004,6.1541168000000539,0]},"properties":{"OBJECTID":214,"F_id":"way/394165926","location":"outdoor","name":"สถานีไฟฟ้าแรงสูงศรีสะเกษ","name_en":"Bang Saphan 1 High Voltage Substation","power":"substation","source":"GPS; sign","substation":"transmission","type":"multipolygon","voltage":"115000","F_geometry":"center","Voltage_kV":115}},{"type":"Feature","id":215,"geometry":{"type":"Point","coordinates":[102.40399720000005,17.230240300000048,0]},"properties":{"OBJECTID":215,"F_id":"way/395065843","location":"outdoor","name":"สถานีไฟฟ้าแรงสูงหนองบัวลำภู","name_en":"Bang Saphan 1 High Voltage Substation","power":"substation","source":"GPS; sign","substation":"transmission","type":"multipolygon","voltage":"115000","F_geometry":"center","Voltage_kV":115}},{"type":"Feature","id":216,"geometry":{"type":"Point","coordinates":[100.44220940000008,5.5775311000000443,0]},"properties":{"OBJECTID":216,"F_id":"way/396552423","location":"outdoor","name":"สถานีไฟฟ้าแรงสูงหนองบัวลำภู","name_en":"Bang Saphan 1 High Voltage Substation","power":"substation","source":"GPS; sign","substation":"transmission","type":"multipolygon","voltage":"132000","F_geometry":"center","Voltage_kV":132}},{"type":"Feature","id":217,"geometry":{"type":"Point","coordinates":[100.40454130000006,5.45154610000003,0]},"properties":{"OBJECTID":217,"F_id":"way/396552425","location":"outdoor","name":"Pencawang Masuk Utama 132/33/11KV Butterworth North","name_en":"Bang Saphan 1 High Voltage Substation","power":"substation","source":"https://www.mapillary.com/app/?pKey=ioB2KKBwCZtbSwPNpW9gEm&focus=photo","substation":"transmission","type":"multipolygon","voltage":"132000;33000;11000","F_geometry":"center","Voltage_kV":132}},{"type":"Feature","id":218,"geometry":{"type":"Point","coordinates":[100.59193440000007,5.4315445000000295,0]},"properties":{"OBJECTID":218,"F_id":"way/396582165","location":"outdoor","name":"Pencawang Masuk Utama Kulim Hi-Tech Park","name_en":"Bang Saphan 1 High Voltage Substation","power":"substation","source":"https://www.mapillary.com/app/?pKey=ioB2KKBwCZtbSwPNpW9gEm&focus=photo","substation":"transmission","type":"multipolygon","voltage":"132000","F_geometry":"center","Voltage_kV":132}},{"type":"Feature","id":219,"geometry":{"type":"Point","coordinates":[100.59293310000004,5.4793849000000705,0]},"properties":{"OBJECTID":219,"F_id":"way/396582166","location":"outdoor","name":"Pencawang Masuk Utama Guthrie","name_en":"Bang Saphan 1 High Voltage Substation","power":"substation","source":"https://www.mapillary.com/app/?pKey=ioB2KKBwCZtbSwPNpW9gEm&focus=photo","substation":"transmission","type":"multipolygon","voltage":"132000","F_geometry":"center","Voltage_kV":132}},{"type":"Feature","id":220,"geometry":{"type":"Point","coordinates":[100.53464350000007,5.6598727000000508,0]},"properties":{"OBJECTID":220,"F_id":"way/396595668","location":"outdoor","name":"Pencawang Masuk Utama Guthrie","name_en":"Bang Saphan 1 High Voltage Substation","power":"substation","source":"https://www.mapillary.com/app/?pKey=ioB2KKBwCZtbSwPNpW9gEm&focus=photo","substation":"transmission","type":"multipolygon","voltage":"132000","F_geometry":"center","Voltage_kV":132}},{"type":"Feature","id":221,"geometry":{"type":"Point","coordinates":[100.62412540000008,5.6872995000000515,0]},"properties":{"OBJECTID":221,"F_id":"way/396595673","location":"outdoor","name":"Pencawang Masuk Utama Guthrie","name_en":"Bang Saphan 1 High Voltage Substation","power":"substation","source":"https://www.mapillary.com/app/?pKey=ioB2KKBwCZtbSwPNpW9gEm&focus=photo","substation":"transmission","type":"multipolygon","voltage":"132000","F_geometry":"center","Voltage_kV":132}},{"type":"Feature","id":222,"geometry":{"type":"Point","coordinates":[100.46855730000004,5.1305095000000733,0]},"properties":{"OBJECTID":222,"F_id":"way/396611104","location":"outdoor","name":"Pencawang Masuk Utama Guthrie","name_en":"Bang Saphan 1 High Voltage Substation","power":"substation","source":"https://www.mapillary.com/app/?pKey=ioB2KKBwCZtbSwPNpW9gEm&focus=photo","substation":"transmission","type":"multipolygon","voltage":"132000","F_geometry":"center","Voltage_kV":132}},{"type":"Feature","id":223,"geometry":{"type":"Point","coordinates":[100.48234370000006,5.2304951000000415,0]},"properties":{"OBJECTID":223,"F_id":"way/396611117","location":"outdoor","name":"PMU Valdor Tenaga Nasional Berhad","name_en":"Bang Saphan 1 High Voltage Substation","power":"substation","source":"https://www.mapillary.com/app/?pKey=ioB2KKBwCZtbSwPNpW9gEm&focus=photo","substation":"transmission","type":"multipolygon","voltage":"132000","F_geometry":"center","Voltage_kV":132}},{"type":"Feature","id":224,"geometry":{"type":"Point","coordinates":[100.46439570000007,5.1750855000000229,0]},"properties":{"OBJECTID":224,"F_id":"way/396611118","location":"outdoor","name":"PMU Valdor Tenaga Nasional Berhad","name_en":"Bang Saphan 1 High Voltage Substation","power":"substation","source":"https://www.mapillary.com/app/?pKey=ioB2KKBwCZtbSwPNpW9gEm&focus=photo","substation":"transmission","type":"multipolygon","voltage":"132000","F_geometry":"center","Voltage_kV":132}},{"type":"Feature","id":225,"geometry":{"type":"Point","coordinates":[100.52675200000004,5.1721310000000358,0]},"properties":{"OBJECTID":225,"F_id":"way/396768134","location":"outdoor","name":"Pencawang Masuk Utama Sungai Kechil","name_en":"Bang Saphan 1 High Voltage Substation","power":"substation","source":"https://www.mapillary.com/app/?pKey=ioB2KKBwCZtbSwPNpW9gEm&focus=photo","substation":"transmission","type":"multipolygon","voltage":"132000;33000","F_geometry":"center","Voltage_kV":132}},{"type":"Feature","id":226,"geometry":{"type":"Point","coordinates":[100.64791690000004,5.8187801000000263,0]},"properties":{"OBJECTID":226,"F_id":"way/397034009","location":"outdoor","name":"Pencawang Masuk Utama Jeniang","name_en":"Bang Saphan 1 High Voltage Substation","power":"substation","source":"https://www.mapillary.com/app/?pKey=ioB2KKBwCZtbSwPNpW9gEm&focus=photo","substation":"transmission","type":"multipolygon","voltage":"132000","F_geometry":"center","Voltage_kV":132}},{"type":"Feature","id":227,"geometry":{"type":"Point","coordinates":[102.64763820000007,17.942442600000049,0]},"properties":{"OBJECTID":227,"F_id":"way/399481351","location":"outdoor","name":"Done Koy Substation","name_en":"Bang Saphan 1 High Voltage Substation","power":"substation","source":"https://www.mapillary.com/app/?pKey=ioB2KKBwCZtbSwPNpW9gEm&focus=photo","substation":"transmission","type":"multipolygon","voltage":"115000","F_geometry":"center","Voltage_kV":115}},{"type":"Feature","id":228,"geometry":{"type":"Point","coordinates":[105.73339240000007,20.313760200000047,0]},"properties":{"OBJECTID":228,"F_id":"way/400591170","location":"outdoor","name":"Done Koy Substation","name_en":"Bang Saphan 1 High Voltage Substation","power":"substation","source":"https://www.mapillary.com/app/?pKey=ioB2KKBwCZtbSwPNpW9gEm&focus=photo","substation":"transmission","type":"multipolygon","voltage":"500000;220000;110000","F_geometry":"center","Voltage_kV":500}},{"type":"Feature","id":229,"geometry":{"type":"Point","coordinates":[105.48793190000004,18.723803800000042,0]},"properties":{"OBJECTID":229,"F_id":"way/400632258","location":"outdoor","name":"Done Koy Substation","name_en":"Bang Saphan 1 High Voltage Substation","power":"substation","source":"https://www.mapillary.com/app/?pKey=ioB2KKBwCZtbSwPNpW9gEm&focus=photo","substation":"transmission","type":"multipolygon","voltage":"110000","F_geometry":"center","Voltage_kV":110}},{"type":"Feature","id":230,"geometry":{"type":"Point","coordinates":[100.48470130000004,5.2621250000000259,0]},"properties":{"OBJECTID":230,"F_id":"way/401328255","location":"outdoor","name":"Done Koy Substation","name_en":"Bang Saphan 1 High Voltage Substation","power":"substation","source":"https://www.mapillary.com/app/?pKey=ioB2KKBwCZtbSwPNpW9gEm&focus=photo","substation":"transmission","type":"multipolygon","voltage":"132000","F_geometry":"center","Voltage_kV":132}},{"type":"Feature","id":231,"geometry":{"type":"Point","coordinates":[102.71098300000006,17.888739000000044,0]},"properties":{"OBJECTID":231,"F_id":"way/401819193","location":"outdoor","name":"Thanaleng","name_en":"Bang Saphan 1 High Voltage Substation","power":"substation","source":"https://www.mapillary.com/app/?pKey=ioB2KKBwCZtbSwPNpW9gEm&focus=photo","substation":"transmission","type":"multipolygon","voltage":"132000","F_geometry":"center","Voltage_kV":132}},{"type":"Feature","id":232,"geometry":{"type":"Point","coordinates":[102.75630070000005,17.821184500000072,0]},"properties":{"OBJECTID":232,"F_id":"way/401819198","location":"outdoor","name":"สถานีไฟฟ้าแรงสูงหนองคาย","name_en":"Bang Saphan 1 High Voltage Substation","power":"substation","source":"https://www.mapillary.com/app/?pKey=ioB2KKBwCZtbSwPNpW9gEm&focus=photo","substation":"transmission","type":"multipolygon","voltage":"115000","F_geometry":"center","Voltage_kV":115}},{"type":"Feature","id":233,"geometry":{"type":"Point","coordinates":[100.43082140000007,15.602498400000059,0]},